[{"id":"ginga-okudo-202407","name":"大久堂 OKUDO カフェ","genre":"cafe","prefecture":"東京都","city":"新宿区","lat":35.703008,"lng":139.6992999,"youtube_id":"RGbsQewaz4c","source_video_title":"【中丸のグルメ】新大久保に乗り込んで、話題になってそうなスイーツを探してみた","visited_date":"2024-07-09","members":["中丸雄一"],"groups":["ginga"],"group":"ginga","nearest_station":"新大久保駅 徒歩3分","tags":[],"tabelog_score":3.47,"price_range":"￥1,000～￥1,999","thumbnail_url":"https://tblg.k-img.com/resize/640x640c/restaurant/images/Rvw/256999/0942bbd5c6d1abef5a494c01ccc48f20.jpg?token=30b004f&api=v2"},{"id":"ginga-maru-202407","name":"スタジオカフェ MARU","genre":"cafe","prefecture":"東京都","city":"新宿区","lat":35.703008,"lng":139.6992999,"youtube_id":"RGbsQewaz4c","source_video_title":"【中丸のグルメ】新大久保に乗り込んで、話題になってそうなスイーツを探してみた","visited_date":"2024-07-09","members":["中丸雄一"],"groups":["ginga"],"group":"ginga","nearest_station":"新大久保駅 徒歩3分","tags":[],"tabelog_score":3.35,"price_range":"￥1,000～￥1,999","thumbnail_url":"https://tblg.k-img.com/resize/640x640c/restaurant/images/Rvw/354048/fe1265acce388bbb9625eadc433e53a3.jpg?token=d79ec5b&api=v2"},{"id":"ginga-24823ef5-202406","name":"豊洲 千客万来","genre":"shokuji","prefecture":"東京都","city":"江東区","lat":35.646684,"lng":139.786093,"youtube_id":"TNKBGNdwqKw","source_video_title":"【中丸のグルメ】東京の噂のスポット「千客万来」に行って、裏技的なことを関係者から聞いちゃった","visited_date":"2024-06-27","members":["中丸雄一"],"groups":["ginga"],"group":"ginga","nearest_station":"ゆりかもめ 市場前駅 徒歩３分","tags":[],"thumbnail_url":"https://tblg.k-img.com/resize/640x640c/restaurant/images/Rvw/353544/f7deaea3c7467836dc48dd9c8e033b24.jpg?token=eac6bb6&api=v2","tabelog_score":3.43,"price_range":"-"},{"id":"ginga-cb38ce4c-202406","name":"和食いぶり別邸 新橋店","genre":"washoku","prefecture":"東京都","city":"港区","lat":35.6655555,"lng":139.7563666,"youtube_id":"5jBPMpJLR60","source_video_title":"HiHi Jetsの猪狩とツアーお疲れ様会をしたら旅行するハメになった","visited_date":"2024-06-15","members":["中丸雄一"],"groups":["ginga"],"group":"ginga","nearest_station":"JR新橋駅 烏森改札口 徒歩1分都営浅草線 新橋駅 A2出口徒歩2分ゆりかもめ 新橋駅 徒歩2分","tags":[],"tabelog_score":3.39,"price_range":"￥6,000～￥7,999","thumbnail_url":"https://tblg.k-img.com/resize/640x640c/restaurant/images/Rvw/206843/1066e512793044b4d986e9edb69d8d66.jpg?token=ab3cad4&api=v2"},{"id":"ginga-9f375cca-202405","name":"和懐 おお田","genre":"shokuji","prefecture":"鹿児島県","city":"枕崎市","lat":31.2702745,"lng":130.2971749,"youtube_id":"1yd3WNzgodI","source_video_title":"【中丸のグルメ】鹿児島と言ったら、これっきゃない。","visited_date":"2024-05-07","members":["中丸雄一"],"groups":["ginga"],"group":"ginga","nearest_station":"枕崎駅 徒歩5分","tags":[],"tabelog_score":3.06,"price_range":"-","thumbnail_url":"https://tblg.k-img.com/resize/640x640c/restaurant/images/Rvw/226804/05bca84c9fec4893506c6431b3574ebd.jpg?token=eeb2161&api=v2"},{"id":"ginga-korin-20250413","name":"KORIN","genre":"izakaya","prefecture":"東京都","city":"中央区","lat":35.669261,"lng":139.764429,"youtube_id":"","source_video_title":"銀河チャンネル","visited_date":"2024-04-13","members":["中丸雄一"],"groups":["ginga"],"group":"ginga","nearest_station":"東銀座駅 徒歩4分","tags":[],"tabelog_score":3.2,"price_range":"￥3,000～￥3,999","thumbnail_url":"https://image.tmdb.org/t/p/w500/6ELW5sORfrRSw8EiS595nnRiJUq.jpg"},{"id":"ginga-f50e5bd3-202403","name":"セイロン・イン","genre":"shokuji","prefecture":"東京都","city":"目黒区","lat":35.641125,"lng":139.6970053,"youtube_id":"","source_video_title":"銀河チャンネル","visited_date":"2024-03-30","members":["中丸雄一"],"groups":["ginga"],"group":"ginga","nearest_station":"中目黒駅 徒歩6分","tags":[],"tabelog_score":3.49,"price_range":"￥3,000～￥3,999","thumbnail_url":"https://image.tmdb.org/t/p/w500/6ELW5sORfrRSw8EiS595nnRiJUq.jpg"},{"id":"ginga-44b85f76-202403","name":"京都 瓢嘻(ひょうき)","genre":"shokuji","prefecture":"東京都","city":"港区","lat":35.6680092,"lng":139.7584668,"youtube_id":"p-HDS9qN1tc","source_video_title":"中丸雄一【猪狩蒼弥とメシ】溜めに溜めた新年に撮った動画です。","visited_date":"2024-03-27","members":["中丸雄一"],"groups":["ginga"],"group":"ginga","nearest_station":"新橋駅 徒歩2分","tags":[],"tabelog_score":3.25,"price_range":"￥10,000～￥14,999","thumbnail_url":"https://tblg.k-img.com/resize/640x640c/restaurant/images/Rvw/54766/54766795.jpg?token=f66abf9&api=v2"},{"id":"ginga-8f622a15-202403","name":"活魚料理 小安丸","genre":"washoku","prefecture":"長崎県","city":"西海市","lat":33.0430473,"lng":129.6716752,"youtube_id":"ASHXCtJu93Y","source_video_title":"【中丸のグルメ】衝撃、長崎でクジラのアレを食べる。","visited_date":"2024-03-12","members":["中丸雄一"],"groups":["ginga"],"group":"ginga","nearest_station":"","tags":[],"tabelog_score":3.19,"price_range":"￥1,000～￥1,999","thumbnail_url":"https://tblg.k-img.com/resize/640x640c/restaurant/images/Rvw/224586/dac6770e13f2d213ff02b3540be2d724.jpg?token=3a4278a&api=v2"},{"id":"ginga-gold_rush-202402","name":"GOLD RUSH(ゴールドラッシュ)","genre":"shokuji","prefecture":"東京都","city":"新宿区","lat":35.696554,"lng":139.7043747,"youtube_id":"","source_video_title":"銀河チャンネル","visited_date":"2024-02-17","members":["中丸雄一"],"groups":["ginga"],"group":"ginga","nearest_station":"東新宿駅 徒歩5分","tags":[],"tabelog_score":3.36,"price_range":"-","thumbnail_url":"https://image.tmdb.org/t/p/w500/6ELW5sORfrRSw8EiS595nnRiJUq.jpg"},{"id":"ginga-46244fe9-202402","name":"いつものところ十刻","genre":"shokuji","prefecture":"高知県","city":"高知市","lat":33.5633219,"lng":133.5400394,"youtube_id":"A_L2aTTrOg4","source_video_title":"【中丸のグルメ】高知といえば...カツオ！","visited_date":"2024-02-13","members":["中丸雄一"],"groups":["ginga"],"group":"ginga","nearest_station":"蓮池町通駅 徒歩5分","tags":[],"tabelog_score":3.45,"price_range":"￥4,000～￥4,999","thumbnail_url":"https://tblg.k-img.com/resize/640x640c/restaurant/images/Rvw/305661/1bd6fc9bd68684a4bea9146ca6df327b.jpg?token=bd7b6af&api=v2"},{"id":"ginga-810aafd0-202402","name":"ファムファム","genre":"shokuji","prefecture":"東京都","city":"渋谷区","lat":35.6507318,"lng":139.7046751,"youtube_id":"","source_video_title":"銀河チャンネル","visited_date":"2024-02-03","members":["中丸雄一"],"groups":["ginga"],"group":"ginga","nearest_station":"代官山駅 徒歩5分","tags":[],"tabelog_score":3.46,"price_range":"￥3,000～￥3,999","thumbnail_url":"https://image.tmdb.org/t/p/w500/6ELW5sORfrRSw8EiS595nnRiJUq.jpg"}]