[{"id":"heysayjump-2c7fa4f5-20151114","name":"スパゲッティーのパンチョ","genre":"食事","prefecture":"東京都","city":"渋谷区","lat":35.6589015,"lng":139.6975367,"youtube_id":"","source_video_title":"2015.11.14/11.21 大盛りグルメ特集","visited_date":"2015-11-14","members":["山田涼介","知念侑李"],"groups":["heysayjump"],"group":"heysayjump","nearest_station":"渋谷駅 徒歩2分","tags":[],"thumbnail_url":"https://image.tmdb.org/t/p/w500/fHu3eQ9wF9NiVUXYBMV5e9VbOob.jpg","source_type":"tv","tabelog_score":3.45,"price_range":"￥1,000～￥1,999"},{"id":"heysayjump-6a7b44cb-20151114","name":"ちばチャン","genre":"食事","prefecture":"千葉県","city":"柏市旭町","lat":35.8574303,"lng":139.9654121,"youtube_id":"","source_video_title":"2015.11.14/11.21 大盛りグルメ特集","visited_date":"2015-11-14","members":[],"groups":["heysayjump"],"group":"heysayjump","nearest_station":"JR 京葉線 海浜幕張駅 徒歩2分","tags":[],"thumbnail_url":"https://image.tmdb.org/t/p/w500/fHu3eQ9wF9NiVUXYBMV5e9VbOob.jpg","source_type":"tv","tabelog_score":3.27,"price_range":"￥2,000～￥2,999"},{"id":"heysayjump-tom_boy_2-20151114","name":"TOM BOY 池袋2号店","genre":"食事","prefecture":"東京都","city":"豊島区","lat":35.7247203,"lng":139.7147332,"youtube_id":"","source_video_title":"2015.11.14/11.21 大盛りグルメ特集","visited_date":"2015-11-14","members":["山田涼介","知念侑李"],"groups":["heysayjump"],"group":"heysayjump","nearest_station":"ＪＲ池袋駅 東口 徒歩3分 地下鉄丸ノ内線池袋駅 徒歩3分","tags":[],"thumbnail_url":"https://image.tmdb.org/t/p/w500/fHu3eQ9wF9NiVUXYBMV5e9VbOob.jpg","source_type":"tv","tabelog_score":3.45,"price_range":"￥2,000～￥2,999"},{"id":"heysayjump-36021fa8-20151114","name":"中華料理 蘭州","genre":"食事","prefecture":"東京都","city":"中央区","lat":35.6720135,"lng":139.7647202,"youtube_id":"","source_video_title":"2015.11.14/11.21 大盛りグルメ特集","visited_date":"2015-11-14","members":["山田涼介","知念侑李"],"groups":["heysayjump"],"group":"heysayjump","nearest_station":"銀座駅 徒歩1分","tags":[],"thumbnail_url":"https://image.tmdb.org/t/p/w500/fHu3eQ9wF9NiVUXYBMV5e9VbOob.jpg","source_type":"tv","tabelog_score":3.51,"price_range":"￥1,000～￥1,999"},{"id":"heysayjump-daigomi-20160303","name":"DAIGOMI","genre":"食事","prefecture":"東京都","city":"豊島区","lat":35.7310839,"lng":139.7089164,"youtube_id":"","source_video_title":"2016.03.03 体を温める食べ物実験","visited_date":"2016-03-03","members":["有岡大貴","髙木雄也","八乙女光"],"groups":["heysayjump"],"group":"heysayjump","nearest_station":"池袋駅 徒歩1分","tags":[],"thumbnail_url":"https://image.tmdb.org/t/p/w500/fHu3eQ9wF9NiVUXYBMV5e9VbOob.jpg","source_type":"tv","tabelog_score":3.34,"price_range":"￥2,000～￥2,999"},{"id":"heysayjump-0286c585-20160303","name":"くう","genre":"食事","prefecture":"東京都","city":"新宿区","lat":35.6945429,"lng":139.7027105,"youtube_id":"","source_video_title":"2016.03.03 体を温める食べ物実験","visited_date":"2016-03-03","members":["有岡大貴","髙木雄也","八乙女光"],"groups":["heysayjump"],"group":"heysayjump","nearest_station":"西武新宿駅 徒歩4分","tags":[],"thumbnail_url":"https://image.tmdb.org/t/p/w500/fHu3eQ9wF9NiVUXYBMV5e9VbOob.jpg","source_type":"tv","tabelog_score":3.45,"price_range":"￥3,000～￥3,999"},{"id":"heysayjump-hero_s-20160414","name":"HERO'S ステーキハウス 秋葉原店","genre":"焼肉","prefecture":"東京都","city":"千代田区","lat":35.7011217,"lng":139.7711004,"youtube_id":"","source_video_title":"2016.04.14 春の大盛りグルメ","visited_date":"2016-04-14","members":["有岡大貴","髙木雄也","八乙女光","岡本圭人"],"groups":["heysayjump"],"group":"heysayjump","nearest_station":"末広町駅 徒歩3分","tags":[],"thumbnail_url":"https://image.tmdb.org/t/p/w500/fHu3eQ9wF9NiVUXYBMV5e9VbOob.jpg","source_type":"tv","tabelog_score":3.48,"price_range":"￥2,000～￥2,999"},{"id":"heysayjump-aad59291-20160414","name":"深川 つり舟","genre":"和食","prefecture":"東京都","city":"国立市","lat":35.693253,"lng":139.4518713,"youtube_id":"","source_video_title":"2016.04.14 春の大盛りグルメ","visited_date":"2016-04-14","members":["有岡大貴","髙木雄也","八乙女光","岡本圭人"],"groups":["heysayjump"],"group":"heysayjump","nearest_station":"国立駅 徒歩13分","tags":[],"thumbnail_url":"https://image.tmdb.org/t/p/w500/fHu3eQ9wF9NiVUXYBMV5e9VbOob.jpg","source_type":"tv","tabelog_score":3.48,"price_range":"￥2,000～￥2,999"},{"id":"heysayjump-sun_mi_emu-20160518","name":"Sun-mi 高松本店 EMU","genre":"食事","prefecture":"東京都","city":"中央区","lat":35.6720135,"lng":139.7647202,"youtube_id":"","source_video_title":"2016.05.18 高級レストランのランチ特集","visited_date":"2016-05-18","members":["薮宏太","伊野尾慧","知念侑李"],"groups":["heysayjump"],"group":"heysayjump","nearest_station":"銀座駅 徒歩1分","tags":[],"thumbnail_url":"https://image.tmdb.org/t/p/w500/fHu3eQ9wF9NiVUXYBMV5e9VbOob.jpg","source_type":"tv"},{"id":"heysayjump-b2922bdd-20160518","name":"赤坂鮨兆","genre":"寿司","prefecture":"東京都","city":"港区","lat":35.6716786,"lng":139.7356224,"youtube_id":"","source_video_title":"2016.05.18 高級レストランのランチ特集","visited_date":"2016-05-18","members":["薮宏太","伊野尾慧","知念侑李"],"groups":["heysayjump"],"group":"heysayjump","nearest_station":"赤坂駅 徒歩1分","tags":[],"thumbnail_url":"https://image.tmdb.org/t/p/w500/fHu3eQ9wF9NiVUXYBMV5e9VbOob.jpg","source_type":"tv","tabelog_score":3.02,"price_range":"-"},{"id":"heysayjump-a4fe57cb-20160518","name":"銀熊茶寮","genre":"和食","prefecture":"東京都","city":"中央区","lat":35.6720135,"lng":139.7647202,"youtube_id":"","source_video_title":"2016.05.18 高級レストランのランチ特集","visited_date":"2016-05-18","members":["薮宏太","伊野尾慧","知念侑李"],"groups":["heysayjump"],"group":"heysayjump","nearest_station":"銀座駅 徒歩1分","tags":[],"thumbnail_url":"https://image.tmdb.org/t/p/w500/fHu3eQ9wF9NiVUXYBMV5e9VbOob.jpg","source_type":"tv","tabelog_score":3.38,"price_range":"￥10,000～￥14,999"},{"id":"heysayjump-e23d17b2-20160720","name":"てんぷら阿部 銀座本店","genre":"和食","prefecture":"東京都","city":"中央区","lat":35.67117,"lng":139.766249,"youtube_id":"","source_video_title":"2016.07.20 グルメ探偵調査","visited_date":"2016-07-20","members":["八乙女光"],"groups":["heysayjump"],"group":"heysayjump","nearest_station":"地下鉄銀座線銀座駅 A10番出口 徒歩1分 ＪＲ有楽町駅 徒歩7分","tags":[],"thumbnail_url":"https://image.tmdb.org/t/p/w500/fHu3eQ9wF9NiVUXYBMV5e9VbOob.jpg","source_type":"tv","tabelog_score":3.49,"price_range":"￥6,000～￥7,999"},{"id":"heysayjump-blt-20160720","name":"BLTステーキ 銀座","genre":"焼肉","prefecture":"東京都","city":"中央区","lat":35.670113,"lng":139.765481,"youtube_id":"","source_video_title":"2016.07.20 グルメ探偵調査","visited_date":"2016-07-20","members":["八乙女光"],"groups":["heysayjump"],"group":"heysayjump","nearest_station":"東銀座駅 徒歩2分","tags":[],"thumbnail_url":"https://image.tmdb.org/t/p/w500/fHu3eQ9wF9NiVUXYBMV5e9VbOob.jpg","source_type":"tv","tabelog_score":3.54,"price_range":"￥10,000～￥14,999"},{"id":"heysayjump-1e541157-20160720","name":"東京銀座フォワグラ","genre":"食事","prefecture":"東京都","city":"中央区","lat":35.6720135,"lng":139.7647202,"youtube_id":"","source_video_title":"2016.07.20 グルメ探偵調査","visited_date":"2016-07-20","members":["八乙女光"],"groups":["heysayjump"],"group":"heysayjump","nearest_station":"銀座駅 徒歩1分","tags":[],"thumbnail_url":"https://image.tmdb.org/t/p/w500/fHu3eQ9wF9NiVUXYBMV5e9VbOob.jpg","source_type":"tv","tabelog_score":3.5,"price_range":"￥10,000～￥14,999"},{"id":"heysayjump-77cd10ec-20160720","name":"銀座 楼蘭","genre":"食事","prefecture":"東京都","city":"中央区","lat":35.6720135,"lng":139.7647202,"youtube_id":"","source_video_title":"2016.07.20 グルメ探偵調査","visited_date":"2016-07-20","members":["八乙女光"],"groups":["heysayjump"],"group":"heysayjump","nearest_station":"銀座駅 徒歩1分","tags":[],"thumbnail_url":"https://image.tmdb.org/t/p/w500/fHu3eQ9wF9NiVUXYBMV5e9VbOob.jpg","source_type":"tv","tabelog_score":3.5,"price_range":"￥10,000～￥14,999"},{"id":"heysayjump-96cbb03d-20161026","name":"爆裂石焼らーめん一兆","genre":"ラーメン","prefecture":"茨城県","city":"つくば市","lat":36.06035,"lng":140.1439471,"youtube_id":"","source_video_title":"2016.10.26 秋のバスツアーおすすめグルメ","visited_date":"2016-10-26","members":["髙木雄也","有岡大貴"],"groups":["heysayjump"],"group":"heysayjump","nearest_station":"","tags":[],"thumbnail_url":"https://image.tmdb.org/t/p/w500/fHu3eQ9wF9NiVUXYBMV5e9VbOob.jpg","source_type":"tv","tabelog_score":3.2,"price_range":"￥1,000～￥1,999"},{"id":"heysayjump-new_new_york_club-20161026","name":"New NEW YORK CLUB","genre":"食事","prefecture":"東京都","city":"目黒区","lat":35.6065599,"lng":139.6790149,"youtube_id":"","source_video_title":"2016.10.26 秋のバスツアーおすすめグルメ","visited_date":"2016-10-26","members":["髙木雄也","有岡大貴"],"groups":["heysayjump"],"group":"heysayjump","nearest_station":"緑が丘駅 徒歩1分","tags":[],"thumbnail_url":"https://image.tmdb.org/t/p/w500/fHu3eQ9wF9NiVUXYBMV5e9VbOob.jpg","source_type":"tv","tabelog_score":3.48,"price_range":"-"},{"id":"heysayjump-ca6f693e-20161026","name":"汁いち","genre":"ラーメン","prefecture":"神奈川県","city":"横浜市","lat":35.4714623,"lng":139.6159175,"youtube_id":"","source_video_title":"2016.10.26 秋のバスツアーおすすめグルメ","visited_date":"2016-10-26","members":["髙木雄也","有岡大貴"],"groups":["heysayjump"],"group":"heysayjump","nearest_station":"三ツ沢下町駅 徒歩9分","tags":[],"thumbnail_url":"https://image.tmdb.org/t/p/w500/fHu3eQ9wF9NiVUXYBMV5e9VbOob.jpg","source_type":"tv","tabelog_score":3.23,"price_range":"￥4,000～￥4,999"},{"id":"heysayjump-d26f3f7f-20161026","name":"秀ちゃんラーメン赤坂","genre":"ラーメン","prefecture":"東京都","city":"港区","lat":35.6716786,"lng":139.7356224,"youtube_id":"","source_video_title":"2016.10.26 秋のバスツアーおすすめグルメ","visited_date":"2016-10-26","members":["髙木雄也","有岡大貴"],"groups":["heysayjump"],"group":"heysayjump","nearest_station":"赤坂駅 徒歩1分","tags":[],"thumbnail_url":"https://image.tmdb.org/t/p/w500/fHu3eQ9wF9NiVUXYBMV5e9VbOob.jpg","source_type":"tv","tabelog_score":3.71,"price_range":"￥2,000～￥2,999"},{"id":"heysayjump-bee-20170201","name":"ダイニングダーツバー Bee 新宿店","genre":"居酒屋","prefecture":"東京都","city":"新宿区","lat":35.6921592,"lng":139.7006065,"youtube_id":"","source_video_title":"2017.02.01/02.08 女子会向けスイーツ特集","visited_date":"2017-02-01","members":["髙木雄也","八乙女光","中島裕翔","知念侑李"],"groups":["heysayjump"],"group":"heysayjump","nearest_station":"JR新宿駅東口徒歩1分／西武新宿線西武新宿駅 徒歩3分","tags":[],"thumbnail_url":"https://image.tmdb.org/t/p/w500/fHu3eQ9wF9NiVUXYBMV5e9VbOob.jpg","source_type":"tv","tabelog_score":3.1,"price_range":"￥3,000～￥3,999"},{"id":"heysayjump-2bouze-20170201","name":"2BOUZE","genre":"食事","prefecture":"千葉県","city":"船橋市","lat":35.6940325,"lng":139.976026,"youtube_id":"","source_video_title":"2017.02.01/02.08 女子会向けスイーツ特集","visited_date":"2017-02-01","members":["髙木雄也","八乙女光","中島裕翔","知念侑李"],"groups":["heysayjump"],"group":"heysayjump","nearest_station":"京成船橋駅 徒歩18分","tags":[],"thumbnail_url":"https://image.tmdb.org/t/p/w500/fHu3eQ9wF9NiVUXYBMV5e9VbOob.jpg","source_type":"tv","tabelog_score":3.04,"price_range":"￥3,000～￥3,999"},{"id":"heysayjump-dcaf8134-20170201","name":"丸子峠鯛焼き屋","genre":"スイーツ","prefecture":"静岡県","city":"静岡市","lat":34.964225,"lng":138.393598,"youtube_id":"","source_video_title":"2017.02.01/02.08 女子会向けスイーツ特集","visited_date":"2017-02-01","members":["髙木雄也","八乙女光","中島裕翔","知念侑李"],"groups":["heysayjump"],"group":"heysayjump","nearest_station":"静岡駅 徒歩15分","tags":[],"thumbnail_url":"https://image.tmdb.org/t/p/w500/fHu3eQ9wF9NiVUXYBMV5e9VbOob.jpg","source_type":"tv","tabelog_score":3.19,"price_range":"-"},{"id":"heysayjump-69bd605c-20170201","name":"創作寿司工房 竜宮城","genre":"寿司","prefecture":"福岡県","city":"糟屋郡志免町","lat":33.6050905,"lng":130.4486705,"youtube_id":"","source_video_title":"2017.02.01/02.08 女子会向けスイーツ特集","visited_date":"2017-02-01","members":["髙木雄也","八乙女光","中島裕翔","知念侑李"],"groups":["heysayjump"],"group":"heysayjump","nearest_station":"福岡空港駅 徒歩14分","tags":[],"thumbnail_url":"https://image.tmdb.org/t/p/w500/fHu3eQ9wF9NiVUXYBMV5e9VbOob.jpg","source_type":"tv","tabelog_score":3.02,"price_range":"-"},{"id":"heysayjump-747256d6-20170201","name":"パセラリゾーツ 銀座店","genre":"カフェ","prefecture":"東京都","city":"中央区","lat":35.6720135,"lng":139.7647202,"youtube_id":"","source_video_title":"2017.02.01/02.08 女子会向けスイーツ特集","visited_date":"2017-02-01","members":["髙木雄也","八乙女光","中島裕翔","知念侑李"],"groups":["heysayjump"],"group":"heysayjump","nearest_station":"銀座駅 徒歩1分","tags":[],"thumbnail_url":"https://image.tmdb.org/t/p/w500/fHu3eQ9wF9NiVUXYBMV5e9VbOob.jpg","source_type":"tv","tabelog_score":3.37,"price_range":"￥5,000～￥5,999"},{"id":"heysayjump-471bb502-20180101","name":"堂ヶ島食堂","genre":"和食","prefecture":"静岡県","city":"賀茂郡西伊豆町","lat":34.7753066,"lng":138.774006,"youtube_id":"","source_video_title":"2018.01.01 世界の絶景そっくり旅","visited_date":"2018-01-01","members":["髙木雄也","有岡大貴","伊野尾慧","八乙女光"],"groups":["heysayjump"],"group":"heysayjump","nearest_station":"","tags":[],"thumbnail_url":"https://image.tmdb.org/t/p/w500/fHu3eQ9wF9NiVUXYBMV5e9VbOob.jpg","source_type":"tv","tabelog_score":3.44,"price_range":"-"},{"id":"heysayjump-448a0ff6-20180825","name":"海鮮茶屋 活き活き亭","genre":"和食","prefecture":"千葉県","city":"木更津市","lat":35.3809628,"lng":139.9211849,"youtube_id":"","source_video_title":"2018.08.25/09.01 日帰りサイクリング千葉房総","visited_date":"2018-08-25","members":["髙木雄也","八乙女光","有岡大貴"],"groups":["heysayjump"],"group":"heysayjump","nearest_station":"木更津駅 徒歩8分","tags":[],"thumbnail_url":"https://image.tmdb.org/t/p/w500/fHu3eQ9wF9NiVUXYBMV5e9VbOob.jpg","source_type":"tv","tabelog_score":3.47,"price_range":"-"},{"id":"heysayjump-25f1ec3d-20180908","name":"うな達","genre":"和食","prefecture":"東京都","city":"豊島区","lat":35.7290721,"lng":139.7209701,"youtube_id":"","source_video_title":"2018.09.08 グルメ探偵調査","visited_date":"2018-09-08","members":["山田涼介","八乙女光"],"groups":["heysayjump"],"group":"heysayjump","nearest_station":"向原駅 徒歩6分","tags":[],"thumbnail_url":"https://image.tmdb.org/t/p/w500/fHu3eQ9wF9NiVUXYBMV5e9VbOob.jpg","source_type":"tv","tabelog_score":3.48,"price_range":"￥2,000～￥2,999"},{"id":"heysayjump-d5f50b8f-20180908","name":"亀戸餃子","genre":"食事","prefecture":"東京都","city":"江東区","lat":35.6973918,"lng":139.8266954,"youtube_id":"","source_video_title":"2018.09.08 グルメ探偵調査","visited_date":"2018-09-08","members":["山田涼介","八乙女光"],"groups":["heysayjump"],"group":"heysayjump","nearest_station":"亀戸駅 徒歩1分","tags":[],"thumbnail_url":"https://image.tmdb.org/t/p/w500/fHu3eQ9wF9NiVUXYBMV5e9VbOob.jpg","source_type":"tv","tabelog_score":3.52,"price_range":"-"},{"id":"heysayjump-e83e8430-20180908","name":"ひき肉少年","genre":"食事","prefecture":"東京都","city":"港区","lat":35.6438973,"lng":139.7277018,"youtube_id":"","source_video_title":"2018.09.08 グルメ探偵調査","visited_date":"2018-09-08","members":["山田涼介","八乙女光"],"groups":["heysayjump"],"group":"heysayjump","nearest_station":"白金高輪駅 徒歩10分","tags":[],"thumbnail_url":"https://image.tmdb.org/t/p/w500/fHu3eQ9wF9NiVUXYBMV5e9VbOob.jpg","source_type":"tv","tabelog_score":3.04,"price_range":"￥3,000～￥3,999"},{"id":"heysayjump-078efd60-20180908","name":"路地裏","genre":"食事","prefecture":"東京都","city":"港区","lat":35.6301291,"lng":139.7507521,"youtube_id":"","source_video_title":"2018.09.08 グルメ探偵調査","visited_date":"2018-09-08","members":["山田涼介","八乙女光"],"groups":["heysayjump"],"group":"heysayjump","nearest_station":"天王洲アイル駅 徒歩13分","tags":[],"thumbnail_url":"https://image.tmdb.org/t/p/w500/fHu3eQ9wF9NiVUXYBMV5e9VbOob.jpg","source_type":"tv","tabelog_score":3.49,"price_range":"￥2,000～￥2,999"},{"id":"heysayjump-14cb2470-20181110","name":"大玉や","genre":"スイーツ","prefecture":"埼玉県","city":"川越市","lat":35.9251145,"lng":139.4856927,"youtube_id":"","source_video_title":"2018.11.10 川越特集","visited_date":"2018-11-10","members":["伊野尾慧","髙木雄也"],"groups":["heysayjump"],"group":"heysayjump","nearest_station":"","tags":[],"thumbnail_url":"https://image.tmdb.org/t/p/w500/fHu3eQ9wF9NiVUXYBMV5e9VbOob.jpg","source_type":"tv","tabelog_score":3.11,"price_range":"-"},{"id":"heysayjump-1b4619c1-20181110","name":"松陸製菓","genre":"スイーツ","prefecture":"埼玉県","city":"川越市","lat":35.9251145,"lng":139.4856927,"youtube_id":"","source_video_title":"2018.11.10 川越特集","visited_date":"2018-11-10","members":["伊野尾慧","髙木雄也"],"groups":["heysayjump"],"group":"heysayjump","nearest_station":"","tags":[],"thumbnail_url":"https://image.tmdb.org/t/p/w500/fHu3eQ9wF9NiVUXYBMV5e9VbOob.jpg","source_type":"tv","tabelog_score":3.39,"price_range":"-"},{"id":"heysayjump-fa5e2437-20181110","name":"龜屋 本店","genre":"食事","prefecture":"埼玉県","city":"川越市","lat":35.9251145,"lng":139.4856927,"youtube_id":"","source_video_title":"2018.11.10 川越特集","visited_date":"2018-11-10","members":["伊野尾慧","髙木雄也"],"groups":["heysayjump"],"group":"heysayjump","nearest_station":"","tags":[],"thumbnail_url":"https://image.tmdb.org/t/p/w500/fHu3eQ9wF9NiVUXYBMV5e9VbOob.jpg","source_type":"tv","tabelog_score":3.17,"price_range":"～￥999"},{"id":"heysayjump-103aefa3-20181110","name":"鐘撞堂下 田中屋","genre":"食事","prefecture":"埼玉県","city":"川越市","lat":35.9251145,"lng":139.4856927,"youtube_id":"","source_video_title":"2018.11.10 川越特集","visited_date":"2018-11-10","members":["薮宏太","山田涼介"],"groups":["heysayjump"],"group":"heysayjump","nearest_station":"","tags":[],"thumbnail_url":"https://image.tmdb.org/t/p/w500/fHu3eQ9wF9NiVUXYBMV5e9VbOob.jpg","source_type":"tv","tabelog_score":3.32,"price_range":"-"},{"id":"heysayjump-86cc2d7d-20181110","name":"創作漬物 川越・河村屋","genre":"その他","prefecture":"埼玉県","city":"川越市","lat":35.9251145,"lng":139.4856927,"youtube_id":"","source_video_title":"2018.11.10 川越特集","visited_date":"2018-11-10","members":["薮宏太","山田涼介"],"groups":["heysayjump"],"group":"heysayjump","nearest_station":"","tags":[],"thumbnail_url":"https://image.tmdb.org/t/p/w500/fHu3eQ9wF9NiVUXYBMV5e9VbOob.jpg","source_type":"tv","tabelog_score":3.22,"price_range":"-"},{"id":"heysayjump-b9c7e0f2-20181110","name":"亀屋栄泉","genre":"スイーツ","prefecture":"埼玉県","city":"川越市","lat":35.9251145,"lng":139.4856927,"youtube_id":"","source_video_title":"2018.11.10 川越特集","visited_date":"2018-11-10","members":["薮宏太","山田涼介"],"groups":["heysayjump"],"group":"heysayjump","nearest_station":"","tags":[],"thumbnail_url":"https://image.tmdb.org/t/p/w500/fHu3eQ9wF9NiVUXYBMV5e9VbOob.jpg","source_type":"tv","tabelog_score":3.41,"price_range":"-"},{"id":"heysayjump-300a1c2c-20181110","name":"寺子屋本舗 川越店","genre":"スイーツ","prefecture":"埼玉県","city":"川越市","lat":35.9251145,"lng":139.4856927,"youtube_id":"","source_video_title":"2018.11.10 川越特集","visited_date":"2018-11-10","members":["薮宏太","山田涼介"],"groups":["heysayjump"],"group":"heysayjump","nearest_station":"","tags":[],"thumbnail_url":"https://image.tmdb.org/t/p/w500/fHu3eQ9wF9NiVUXYBMV5e9VbOob.jpg","source_type":"tv","tabelog_score":3.08,"price_range":"-"},{"id":"heysayjump-eea6c892-20181110","name":"松本醤油商店","genre":"その他","prefecture":"埼玉県","city":"川越市","lat":35.9251145,"lng":139.4856927,"youtube_id":"","source_video_title":"2018.11.10 川越特集","visited_date":"2018-11-10","members":["薮宏太","山田涼介"],"groups":["heysayjump"],"group":"heysayjump","nearest_station":"","tags":[],"thumbnail_url":"https://image.tmdb.org/t/p/w500/fHu3eQ9wF9NiVUXYBMV5e9VbOob.jpg","source_type":"tv","tabelog_score":3.08,"price_range":"-"},{"id":"heysayjump-0b963b6e-20181124","name":"まことや","genre":"食事","prefecture":"埼玉県","city":"川越市","lat":35.9251145,"lng":139.4856927,"youtube_id":"","source_video_title":"2018.11.24 川越特集後編","visited_date":"2018-11-24","members":["伊野尾慧","髙木雄也"],"groups":["heysayjump"],"group":"heysayjump","nearest_station":"","tags":[],"thumbnail_url":"https://image.tmdb.org/t/p/w500/fHu3eQ9wF9NiVUXYBMV5e9VbOob.jpg","source_type":"tv","tabelog_score":3.41,"price_range":"-"},{"id":"heysayjump-243a0b6a-20181124","name":"醤遊王国","genre":"その他","prefecture":"埼玉県","city":"川越市","lat":35.9251145,"lng":139.4856927,"youtube_id":"","source_video_title":"2018.11.24 川越特集後編","visited_date":"2018-11-24","members":["伊野尾慧","髙木雄也"],"groups":["heysayjump"],"group":"heysayjump","nearest_station":"","tags":[],"thumbnail_url":"https://image.tmdb.org/t/p/w500/fHu3eQ9wF9NiVUXYBMV5e9VbOob.jpg","source_type":"tv","tabelog_score":3.09,"price_range":"-"},{"id":"heysayjump-6760425c-20181124","name":"東洋堂","genre":"スイーツ","prefecture":"埼玉県","city":"川越市","lat":35.9251145,"lng":139.4856927,"youtube_id":"","source_video_title":"2018.11.24 川越特集後編","visited_date":"2018-11-24","members":["伊野尾慧","髙木雄也"],"groups":["heysayjump"],"group":"heysayjump","nearest_station":"","tags":[],"thumbnail_url":"https://image.tmdb.org/t/p/w500/fHu3eQ9wF9NiVUXYBMV5e9VbOob.jpg","source_type":"tv","tabelog_score":3.13,"price_range":"-"},{"id":"heysayjump-20173f2d-20181124","name":"餃子菜館 大八","genre":"食事","prefecture":"埼玉県","city":"川越市","lat":35.9251145,"lng":139.4856927,"youtube_id":"","source_video_title":"2018.11.24 川越特集後編","visited_date":"2018-11-24","members":["伊野尾慧","髙木雄也"],"groups":["heysayjump"],"group":"heysayjump","nearest_station":"","tags":[],"thumbnail_url":"https://image.tmdb.org/t/p/w500/fHu3eQ9wF9NiVUXYBMV5e9VbOob.jpg","source_type":"tv","tabelog_score":3.28,"price_range":"-"},{"id":"heysayjump-e8d40d3c-20181124","name":"近江屋長兵衛商店","genre":"食事","prefecture":"埼玉県","city":"川越市","lat":35.9251145,"lng":139.4856927,"youtube_id":"","source_video_title":"2018.11.24 川越特集後編","visited_date":"2018-11-24","members":["薮宏太","山田涼介"],"groups":["heysayjump"],"group":"heysayjump","nearest_station":"","tags":[],"thumbnail_url":"https://image.tmdb.org/t/p/w500/fHu3eQ9wF9NiVUXYBMV5e9VbOob.jpg","source_type":"tv","tabelog_score":3.54,"price_range":"-"},{"id":"heysayjump-e371a87e-20181124","name":"龜屋 元町店","genre":"食事","prefecture":"埼玉県","city":"川越市","lat":35.9251145,"lng":139.4856927,"youtube_id":"","source_video_title":"2018.11.24 川越特集後編","visited_date":"2018-11-24","members":["薮宏太","山田涼介"],"groups":["heysayjump"],"group":"heysayjump","nearest_station":"西武新宿線 本川越駅 徒歩10分","tags":[],"thumbnail_url":"https://image.tmdb.org/t/p/w500/fHu3eQ9wF9NiVUXYBMV5e9VbOob.jpg","source_type":"tv","tabelog_score":3.13,"price_range":"-","closed":true},{"id":"heysayjump-cocoro-20181124","name":"cocoro 川越店","genre":"食事","prefecture":"埼玉県","city":"川越市","lat":35.9251145,"lng":139.4856927,"youtube_id":"","source_video_title":"2018.11.24 川越特集後編","visited_date":"2018-11-24","members":["薮宏太","山田涼介"],"groups":["heysayjump"],"group":"heysayjump","nearest_station":"","tags":[],"thumbnail_url":"https://image.tmdb.org/t/p/w500/fHu3eQ9wF9NiVUXYBMV5e9VbOob.jpg","source_type":"tv","tabelog_score":3.19,"price_range":"-"},{"id":"heysayjump-986f7fa5-20181124","name":"松本製菓","genre":"スイーツ","prefecture":"埼玉県","city":"川越市","lat":35.9251145,"lng":139.4856927,"youtube_id":"","source_video_title":"2018.11.24 川越特集後編","visited_date":"2018-11-24","members":["薮宏太","山田涼介"],"groups":["heysayjump"],"group":"heysayjump","nearest_station":"","tags":[],"thumbnail_url":"https://image.tmdb.org/t/p/w500/fHu3eQ9wF9NiVUXYBMV5e9VbOob.jpg","source_type":"tv","tabelog_score":3.05,"price_range":"-"},{"id":"heysayjump-a5e442e2-201603","name":"赤ちり亭 渋谷本店","genre":"食事","prefecture":"東京都","city":"渋谷区","lat":35.6603945,"lng":139.6989446,"youtube_id":"","thumbnail_url":"https://image.tmdb.org/t/p/w500/fHu3eQ9wF9NiVUXYBMV5e9VbOob.jpg","source_type":"tv","source_video_title":"2016.03.03","visited_date":"2016-03-03","members":[],"groups":["heysayjump"],"group":"heysayjump","nearest_station":"渋谷駅 徒歩3分","price_range":"","tags":["いただきハイジャンプ","HeySayJUMP"]},{"id":"heysayjump-new_new_york_club-201610","name":"New NEW YORK CLUB(テイクアウト)","genre":"食事","prefecture":"東京都","city":"目黒区","lat":35.6105308,"lng":139.6758726,"youtube_id":"","thumbnail_url":"https://image.tmdb.org/t/p/w500/fHu3eQ9wF9NiVUXYBMV5e9VbOob.jpg","source_type":"tv","source_video_title":"2016.10.26","visited_date":"2016-10-26","members":[],"groups":["heysayjump"],"group":"heysayjump","nearest_station":"緑が丘駅 徒歩9分","price_range":"-","tags":["いただきハイジャンプ","HeySayJUMP"],"tabelog_score":3.16}]