[{"id":"heysayjump-2c7fa4f5-20151114","name":"スパゲッティーのパンチョ","genre":"shokuji","prefecture":"東京都","city":"渋谷区","lat":35.6589015,"lng":139.6975367,"youtube_id":"","source_video_title":"2015.11.14/11.21 大盛りグルメ特集","visited_date":"2015-11-14","members":["山田涼介","知念侑李"],"groups":["heysayjump"],"group":"heysayjump","nearest_station":"渋谷駅 徒歩2分","tags":[],"thumbnail_url":"https://image.tmdb.org/t/p/w500/fHu3eQ9wF9NiVUXYBMV5e9VbOob.jpg","source_type":"tv","tabelog_score":3.45,"price_range":"￥1,000～￥1,999"},{"id":"heysayjump-6a7b44cb-20151114","name":"ちばチャン","genre":"shokuji","prefecture":"千葉県","city":"柏市旭町","lat":35.8574303,"lng":139.9654121,"youtube_id":"","source_video_title":"2015.11.14/11.21 大盛りグルメ特集","visited_date":"2015-11-14","members":[],"groups":["heysayjump"],"group":"heysayjump","nearest_station":"JR 京葉線 海浜幕張駅 徒歩2分","tags":[],"thumbnail_url":"https://image.tmdb.org/t/p/w500/fHu3eQ9wF9NiVUXYBMV5e9VbOob.jpg","source_type":"tv","tabelog_score":3.27,"price_range":"￥2,000～￥2,999"},{"id":"heysayjump-tom_boy_2-20151114","name":"TOM BOY 池袋2号店","genre":"shokuji","prefecture":"東京都","city":"豊島区","lat":35.7247203,"lng":139.7147332,"youtube_id":"","source_video_title":"2015.11.14/11.21 大盛りグルメ特集","visited_date":"2015-11-14","members":["山田涼介","知念侑李"],"groups":["heysayjump"],"group":"heysayjump","nearest_station":"ＪＲ池袋駅 東口 徒歩3分 地下鉄丸ノ内線池袋駅 徒歩3分","tags":[],"thumbnail_url":"https://image.tmdb.org/t/p/w500/fHu3eQ9wF9NiVUXYBMV5e9VbOob.jpg","source_type":"tv","tabelog_score":3.45,"price_range":"￥2,000～￥2,999"},{"id":"heysayjump-36021fa8-20151114","name":"中華料理 蘭州","genre":"shokuji","prefecture":"東京都","city":"中央区","lat":35.6720135,"lng":139.7647202,"youtube_id":"","source_video_title":"2015.11.14/11.21 大盛りグルメ特集","visited_date":"2015-11-14","members":["山田涼介","知念侑李"],"groups":["heysayjump"],"group":"heysayjump","nearest_station":"銀座駅 徒歩1分","tags":[],"thumbnail_url":"https://image.tmdb.org/t/p/w500/fHu3eQ9wF9NiVUXYBMV5e9VbOob.jpg","source_type":"tv","tabelog_score":3.51,"price_range":"￥1,000～￥1,999"},{"id":"heysayjump-daigomi-20160303","name":"DAIGOMI","genre":"shokuji","prefecture":"東京都","city":"豊島区","lat":35.7310839,"lng":139.7089164,"youtube_id":"","source_video_title":"2016.03.03 体を温める食べ物実験","visited_date":"2016-03-03","members":["有岡大貴","髙木雄也","八乙女光"],"groups":["heysayjump"],"group":"heysayjump","nearest_station":"池袋駅 徒歩1分","tags":[],"thumbnail_url":"https://image.tmdb.org/t/p/w500/fHu3eQ9wF9NiVUXYBMV5e9VbOob.jpg","source_type":"tv","tabelog_score":3.34,"price_range":"￥2,000～￥2,999"},{"id":"heysayjump-0286c585-20160303","name":"くう","genre":"shokuji","prefecture":"東京都","city":"新宿区","lat":35.6945429,"lng":139.7027105,"youtube_id":"","source_video_title":"2016.03.03 体を温める食べ物実験","visited_date":"2016-03-03","members":["有岡大貴","髙木雄也","八乙女光"],"groups":["heysayjump"],"group":"heysayjump","nearest_station":"西武新宿駅 徒歩4分","tags":[],"thumbnail_url":"https://image.tmdb.org/t/p/w500/fHu3eQ9wF9NiVUXYBMV5e9VbOob.jpg","source_type":"tv","tabelog_score":3.45,"price_range":"￥3,000～￥3,999"},{"id":"heysayjump-hero_s-20160414","name":"HERO'S ステーキハウス 秋葉原店","genre":"yakiniku","prefecture":"東京都","city":"千代田区","lat":35.7011217,"lng":139.7711004,"youtube_id":"","source_video_title":"2016.04.14 春の大盛りグルメ","visited_date":"2016-04-14","members":["有岡大貴","髙木雄也","八乙女光","岡本圭人"],"groups":["heysayjump"],"group":"heysayjump","nearest_station":"末広町駅 徒歩3分","tags":[],"thumbnail_url":"https://image.tmdb.org/t/p/w500/fHu3eQ9wF9NiVUXYBMV5e9VbOob.jpg","source_type":"tv","tabelog_score":3.48,"price_range":"￥2,000～￥2,999"},{"id":"heysayjump-aad59291-20160414","name":"深川 つり舟","genre":"washoku","prefecture":"東京都","city":"国立市","lat":35.693253,"lng":139.4518713,"youtube_id":"","source_video_title":"2016.04.14 春の大盛りグルメ","visited_date":"2016-04-14","members":["有岡大貴","髙木雄也","八乙女光","岡本圭人"],"groups":["heysayjump"],"group":"heysayjump","nearest_station":"国立駅 徒歩13分","tags":[],"thumbnail_url":"https://image.tmdb.org/t/p/w500/fHu3eQ9wF9NiVUXYBMV5e9VbOob.jpg","source_type":"tv","tabelog_score":3.48,"price_range":"￥2,000～￥2,999"},{"id":"heysayjump-sun_mi_emu-20160518","name":"Sun-mi 高松本店 EMU","genre":"shokuji","prefecture":"東京都","city":"中央区","lat":35.6720135,"lng":139.7647202,"youtube_id":"","source_video_title":"2016.05.18 高級レストランのランチ特集","visited_date":"2016-05-18","members":["薮宏太","伊野尾慧","知念侑李"],"groups":["heysayjump"],"group":"heysayjump","nearest_station":"銀座駅 徒歩1分","tags":[],"thumbnail_url":"https://image.tmdb.org/t/p/w500/fHu3eQ9wF9NiVUXYBMV5e9VbOob.jpg","source_type":"tv"},{"id":"heysayjump-b2922bdd-20160518","name":"赤坂鮨兆","genre":"washoku","prefecture":"東京都","city":"港区","lat":35.6716786,"lng":139.7356224,"youtube_id":"","source_video_title":"2016.05.18 高級レストランのランチ特集","visited_date":"2016-05-18","members":["薮宏太","伊野尾慧","知念侑李"],"groups":["heysayjump"],"group":"heysayjump","nearest_station":"赤坂駅 徒歩1分","tags":[],"thumbnail_url":"https://image.tmdb.org/t/p/w500/fHu3eQ9wF9NiVUXYBMV5e9VbOob.jpg","source_type":"tv","tabelog_score":3.02,"price_range":"-"},{"id":"heysayjump-a4fe57cb-20160518","name":"銀熊茶寮","genre":"washoku","prefecture":"東京都","city":"中央区","lat":35.6720135,"lng":139.7647202,"youtube_id":"","source_video_title":"2016.05.18 高級レストランのランチ特集","visited_date":"2016-05-18","members":["薮宏太","伊野尾慧","知念侑李"],"groups":["heysayjump"],"group":"heysayjump","nearest_station":"銀座駅 徒歩1分","tags":[],"thumbnail_url":"https://image.tmdb.org/t/p/w500/fHu3eQ9wF9NiVUXYBMV5e9VbOob.jpg","source_type":"tv","tabelog_score":3.38,"price_range":"￥10,000～￥14,999"},{"id":"heysayjump-e23d17b2-20160720","name":"てんぷら阿部 銀座本店","genre":"washoku","prefecture":"東京都","city":"中央区","lat":35.67117,"lng":139.766249,"youtube_id":"","source_video_title":"2016.07.20 グルメ探偵調査","visited_date":"2016-07-20","members":["八乙女光"],"groups":["heysayjump"],"group":"heysayjump","nearest_station":"地下鉄銀座線銀座駅 A10番出口 徒歩1分 ＪＲ有楽町駅 徒歩7分","tags":[],"thumbnail_url":"https://image.tmdb.org/t/p/w500/fHu3eQ9wF9NiVUXYBMV5e9VbOob.jpg","source_type":"tv","tabelog_score":3.49,"price_range":"￥6,000～￥7,999"},{"id":"heysayjump-blt-20160720","name":"BLTステーキ 銀座","genre":"yakiniku","prefecture":"東京都","city":"中央区","lat":35.670113,"lng":139.765481,"youtube_id":"","source_video_title":"2016.07.20 グルメ探偵調査","visited_date":"2016-07-20","members":["八乙女光"],"groups":["heysayjump"],"group":"heysayjump","nearest_station":"東銀座駅 徒歩2分","tags":[],"thumbnail_url":"https://image.tmdb.org/t/p/w500/fHu3eQ9wF9NiVUXYBMV5e9VbOob.jpg","source_type":"tv","tabelog_score":3.54,"price_range":"￥10,000～￥14,999"},{"id":"heysayjump-1e541157-20160720","name":"東京銀座フォワグラ","genre":"shokuji","prefecture":"東京都","city":"中央区","lat":35.6720135,"lng":139.7647202,"youtube_id":"","source_video_title":"2016.07.20 グルメ探偵調査","visited_date":"2016-07-20","members":["八乙女光"],"groups":["heysayjump"],"group":"heysayjump","nearest_station":"銀座駅 徒歩1分","tags":[],"thumbnail_url":"https://image.tmdb.org/t/p/w500/fHu3eQ9wF9NiVUXYBMV5e9VbOob.jpg","source_type":"tv","tabelog_score":3.5,"price_range":"￥10,000～￥14,999"},{"id":"heysayjump-77cd10ec-20160720","name":"銀座 楼蘭","genre":"shokuji","prefecture":"東京都","city":"中央区","lat":35.6720135,"lng":139.7647202,"youtube_id":"","source_video_title":"2016.07.20 グルメ探偵調査","visited_date":"2016-07-20","members":["八乙女光"],"groups":["heysayjump"],"group":"heysayjump","nearest_station":"銀座駅 徒歩1分","tags":[],"thumbnail_url":"https://image.tmdb.org/t/p/w500/fHu3eQ9wF9NiVUXYBMV5e9VbOob.jpg","source_type":"tv","tabelog_score":3.5,"price_range":"￥10,000～￥14,999"},{"id":"heysayjump-96cbb03d-20161026","name":"爆裂石焼らーめん一兆","genre":"ramen","prefecture":"茨城県","city":"つくば市","lat":36.06035,"lng":140.1439471,"youtube_id":"","source_video_title":"2016.10.26 秋のバスツアーおすすめグルメ","visited_date":"2016-10-26","members":["髙木雄也","有岡大貴"],"groups":["heysayjump"],"group":"heysayjump","nearest_station":"","tags":[],"thumbnail_url":"https://image.tmdb.org/t/p/w500/fHu3eQ9wF9NiVUXYBMV5e9VbOob.jpg","source_type":"tv","tabelog_score":3.2,"price_range":"￥1,000～￥1,999"},{"id":"heysayjump-new_new_york_club-20161026","name":"New NEW YORK CLUB","genre":"shokuji","prefecture":"東京都","city":"目黒区","lat":35.6065599,"lng":139.6790149,"youtube_id":"","source_video_title":"2016.10.26 秋のバスツアーおすすめグルメ","visited_date":"2016-10-26","members":["髙木雄也","有岡大貴"],"groups":["heysayjump"],"group":"heysayjump","nearest_station":"緑が丘駅 徒歩1分","tags":[],"thumbnail_url":"https://image.tmdb.org/t/p/w500/fHu3eQ9wF9NiVUXYBMV5e9VbOob.jpg","source_type":"tv","tabelog_score":3.48,"price_range":"-"},{"id":"heysayjump-ca6f693e-20161026","name":"汁いち","genre":"ramen","prefecture":"神奈川県","city":"横浜市","lat":35.4714623,"lng":139.6159175,"youtube_id":"","source_video_title":"2016.10.26 秋のバスツアーおすすめグルメ","visited_date":"2016-10-26","members":["髙木雄也","有岡大貴"],"groups":["heysayjump"],"group":"heysayjump","nearest_station":"三ツ沢下町駅 徒歩9分","tags":[],"thumbnail_url":"https://image.tmdb.org/t/p/w500/fHu3eQ9wF9NiVUXYBMV5e9VbOob.jpg","source_type":"tv","tabelog_score":3.23,"price_range":"￥4,000～￥4,999"},{"id":"heysayjump-d26f3f7f-20161026","name":"秀ちゃんラーメン赤坂","genre":"ramen","prefecture":"東京都","city":"港区","lat":35.6716786,"lng":139.7356224,"youtube_id":"","source_video_title":"2016.10.26 秋のバスツアーおすすめグルメ","visited_date":"2016-10-26","members":["髙木雄也","有岡大貴"],"groups":["heysayjump"],"group":"heysayjump","nearest_station":"赤坂駅 徒歩1分","tags":[],"thumbnail_url":"https://image.tmdb.org/t/p/w500/fHu3eQ9wF9NiVUXYBMV5e9VbOob.jpg","source_type":"tv","tabelog_score":3.71,"price_range":"￥2,000～￥2,999"},{"id":"heysayjump-bee-20170201","name":"ダイニングダーツバー Bee 新宿店","genre":"izakaya","prefecture":"東京都","city":"新宿区","lat":35.6921592,"lng":139.7006065,"youtube_id":"","source_video_title":"2017.02.01/02.08 女子会向けスイーツ特集","visited_date":"2017-02-01","members":["髙木雄也","八乙女光","中島裕翔","知念侑李"],"groups":["heysayjump"],"group":"heysayjump","nearest_station":"JR新宿駅東口徒歩1分／西武新宿線西武新宿駅 徒歩3分","tags":[],"thumbnail_url":"https://image.tmdb.org/t/p/w500/fHu3eQ9wF9NiVUXYBMV5e9VbOob.jpg","source_type":"tv","tabelog_score":3.1,"price_range":"￥3,000～￥3,999"},{"id":"heysayjump-2bouze-20170201","name":"2BOUZE","genre":"shokuji","prefecture":"千葉県","city":"船橋市","lat":35.6940325,"lng":139.976026,"youtube_id":"","source_video_title":"2017.02.01/02.08 女子会向けスイーツ特集","visited_date":"2017-02-01","members":["髙木雄也","八乙女光","中島裕翔","知念侑李"],"groups":["heysayjump"],"group":"heysayjump","nearest_station":"京成船橋駅 徒歩18分","tags":[],"thumbnail_url":"https://image.tmdb.org/t/p/w500/fHu3eQ9wF9NiVUXYBMV5e9VbOob.jpg","source_type":"tv","tabelog_score":3.04,"price_range":"￥3,000～￥3,999"},{"id":"heysayjump-dcaf8134-20170201","name":"丸子峠鯛焼き屋","genre":"sweets","prefecture":"静岡県","city":"静岡市","lat":34.964225,"lng":138.393598,"youtube_id":"","source_video_title":"2017.02.01/02.08 女子会向けスイーツ特集","visited_date":"2017-02-01","members":["髙木雄也","八乙女光","中島裕翔","知念侑李"],"groups":["heysayjump"],"group":"heysayjump","nearest_station":"静岡駅 徒歩15分","tags":[],"thumbnail_url":"https://image.tmdb.org/t/p/w500/fHu3eQ9wF9NiVUXYBMV5e9VbOob.jpg","source_type":"tv","tabelog_score":3.19,"price_range":"-"},{"id":"heysayjump-69bd605c-20170201","name":"創作寿司工房 竜宮城","genre":"washoku","prefecture":"福岡県","city":"糟屋郡志免町","lat":33.6050905,"lng":130.4486705,"youtube_id":"","source_video_title":"2017.02.01/02.08 女子会向けスイーツ特集","visited_date":"2017-02-01","members":["髙木雄也","八乙女光","中島裕翔","知念侑李"],"groups":["heysayjump"],"group":"heysayjump","nearest_station":"福岡空港駅 徒歩14分","tags":[],"thumbnail_url":"https://image.tmdb.org/t/p/w500/fHu3eQ9wF9NiVUXYBMV5e9VbOob.jpg","source_type":"tv","tabelog_score":3.02,"price_range":"-"},{"id":"heysayjump-747256d6-20170201","name":"パセラリゾーツ 銀座店","genre":"cafe","prefecture":"東京都","city":"中央区","lat":35.6720135,"lng":139.7647202,"youtube_id":"","source_video_title":"2017.02.01/02.08 女子会向けスイーツ特集","visited_date":"2017-02-01","members":["髙木雄也","八乙女光","中島裕翔","知念侑李"],"groups":["heysayjump"],"group":"heysayjump","nearest_station":"銀座駅 徒歩1分","tags":[],"thumbnail_url":"https://image.tmdb.org/t/p/w500/fHu3eQ9wF9NiVUXYBMV5e9VbOob.jpg","source_type":"tv","tabelog_score":3.37,"price_range":"￥5,000～￥5,999"},{"id":"heysayjump-471bb502-20180101","name":"堂ヶ島食堂","genre":"washoku","prefecture":"静岡県","city":"賀茂郡西伊豆町","lat":34.7753066,"lng":138.774006,"youtube_id":"","source_video_title":"2018.01.01 世界の絶景そっくり旅","visited_date":"2018-01-01","members":["髙木雄也","有岡大貴","伊野尾慧","八乙女光"],"groups":["heysayjump"],"group":"heysayjump","nearest_station":"","tags":[],"thumbnail_url":"https://image.tmdb.org/t/p/w500/fHu3eQ9wF9NiVUXYBMV5e9VbOob.jpg","source_type":"tv","tabelog_score":3.44,"price_range":"-"},{"id":"heysayjump-448a0ff6-20180825","name":"海鮮茶屋 活き活き亭","genre":"washoku","prefecture":"千葉県","city":"木更津市","lat":35.3809628,"lng":139.9211849,"youtube_id":"","source_video_title":"2018.08.25/09.01 日帰りサイクリング千葉房総","visited_date":"2018-08-25","members":["髙木雄也","八乙女光","有岡大貴"],"groups":["heysayjump"],"group":"heysayjump","nearest_station":"木更津駅 徒歩8分","tags":[],"thumbnail_url":"https://image.tmdb.org/t/p/w500/fHu3eQ9wF9NiVUXYBMV5e9VbOob.jpg","source_type":"tv","tabelog_score":3.47,"price_range":"-"},{"id":"heysayjump-25f1ec3d-20180908","name":"うな達","genre":"washoku","prefecture":"東京都","city":"豊島区","lat":35.7290721,"lng":139.7209701,"youtube_id":"","source_video_title":"2018.09.08 グルメ探偵調査","visited_date":"2018-09-08","members":["山田涼介","八乙女光"],"groups":["heysayjump"],"group":"heysayjump","nearest_station":"向原駅 徒歩6分","tags":[],"thumbnail_url":"https://image.tmdb.org/t/p/w500/fHu3eQ9wF9NiVUXYBMV5e9VbOob.jpg","source_type":"tv","tabelog_score":3.48,"price_range":"￥2,000～￥2,999"},{"id":"heysayjump-d5f50b8f-20180908","name":"亀戸餃子","genre":"shokuji","prefecture":"東京都","city":"江東区","lat":35.6973918,"lng":139.8266954,"youtube_id":"","source_video_title":"2018.09.08 グルメ探偵調査","visited_date":"2018-09-08","members":["山田涼介","八乙女光"],"groups":["heysayjump"],"group":"heysayjump","nearest_station":"亀戸駅 徒歩1分","tags":[],"thumbnail_url":"https://image.tmdb.org/t/p/w500/fHu3eQ9wF9NiVUXYBMV5e9VbOob.jpg","source_type":"tv","tabelog_score":3.52,"price_range":"-"},{"id":"heysayjump-e83e8430-20180908","name":"ひき肉少年","genre":"shokuji","prefecture":"東京都","city":"港区","lat":35.6438973,"lng":139.7277018,"youtube_id":"","source_video_title":"2018.09.08 グルメ探偵調査","visited_date":"2018-09-08","members":["山田涼介","八乙女光"],"groups":["heysayjump"],"group":"heysayjump","nearest_station":"白金高輪駅 徒歩10分","tags":[],"thumbnail_url":"https://image.tmdb.org/t/p/w500/fHu3eQ9wF9NiVUXYBMV5e9VbOob.jpg","source_type":"tv","tabelog_score":3.04,"price_range":"￥3,000～￥3,999"},{"id":"heysayjump-078efd60-20180908","name":"路地裏","genre":"shokuji","prefecture":"東京都","city":"港区","lat":35.6301291,"lng":139.7507521,"youtube_id":"","source_video_title":"2018.09.08 グルメ探偵調査","visited_date":"2018-09-08","members":["山田涼介","八乙女光"],"groups":["heysayjump"],"group":"heysayjump","nearest_station":"天王洲アイル駅 徒歩13分","tags":[],"thumbnail_url":"https://image.tmdb.org/t/p/w500/fHu3eQ9wF9NiVUXYBMV5e9VbOob.jpg","source_type":"tv","tabelog_score":3.49,"price_range":"￥2,000～￥2,999"},{"id":"heysayjump-14cb2470-20181110","name":"大玉や","genre":"sweets","prefecture":"埼玉県","city":"川越市","lat":35.9251145,"lng":139.4856927,"youtube_id":"","source_video_title":"2018.11.10 川越特集","visited_date":"2018-11-10","members":["伊野尾慧","髙木雄也"],"groups":["heysayjump"],"group":"heysayjump","nearest_station":"","tags":[],"thumbnail_url":"https://image.tmdb.org/t/p/w500/fHu3eQ9wF9NiVUXYBMV5e9VbOob.jpg","source_type":"tv","tabelog_score":3.11,"price_range":"-"},{"id":"heysayjump-1b4619c1-20181110","name":"松陸製菓","genre":"sweets","prefecture":"埼玉県","city":"川越市","lat":35.9251145,"lng":139.4856927,"youtube_id":"","source_video_title":"2018.11.10 川越特集","visited_date":"2018-11-10","members":["伊野尾慧","髙木雄也"],"groups":["heysayjump"],"group":"heysayjump","nearest_station":"","tags":[],"thumbnail_url":"https://image.tmdb.org/t/p/w500/fHu3eQ9wF9NiVUXYBMV5e9VbOob.jpg","source_type":"tv","tabelog_score":3.39,"price_range":"-"},{"id":"heysayjump-fa5e2437-20181110","name":"龜屋 本店","genre":"shokuji","prefecture":"埼玉県","city":"川越市","lat":35.9251145,"lng":139.4856927,"youtube_id":"","source_video_title":"2018.11.10 川越特集","visited_date":"2018-11-10","members":["伊野尾慧","髙木雄也"],"groups":["heysayjump"],"group":"heysayjump","nearest_station":"","tags":[],"thumbnail_url":"https://image.tmdb.org/t/p/w500/fHu3eQ9wF9NiVUXYBMV5e9VbOob.jpg","source_type":"tv","tabelog_score":3.17,"price_range":"～￥999"},{"id":"heysayjump-103aefa3-20181110","name":"鐘撞堂下 田中屋","genre":"shokuji","prefecture":"埼玉県","city":"川越市","lat":35.9251145,"lng":139.4856927,"youtube_id":"","source_video_title":"2018.11.10 川越特集","visited_date":"2018-11-10","members":["薮宏太","山田涼介"],"groups":["heysayjump"],"group":"heysayjump","nearest_station":"","tags":[],"thumbnail_url":"https://image.tmdb.org/t/p/w500/fHu3eQ9wF9NiVUXYBMV5e9VbOob.jpg","source_type":"tv","tabelog_score":3.32,"price_range":"-"},{"id":"heysayjump-86cc2d7d-20181110","name":"創作漬物 川越・河村屋","genre":"others","prefecture":"埼玉県","city":"川越市","lat":35.9251145,"lng":139.4856927,"youtube_id":"","source_video_title":"2018.11.10 川越特集","visited_date":"2018-11-10","members":["薮宏太","山田涼介"],"groups":["heysayjump"],"group":"heysayjump","nearest_station":"","tags":[],"thumbnail_url":"https://image.tmdb.org/t/p/w500/fHu3eQ9wF9NiVUXYBMV5e9VbOob.jpg","source_type":"tv","tabelog_score":3.22,"price_range":"-"},{"id":"heysayjump-b9c7e0f2-20181110","name":"亀屋栄泉","genre":"sweets","prefecture":"埼玉県","city":"川越市","lat":35.9251145,"lng":139.4856927,"youtube_id":"","source_video_title":"2018.11.10 川越特集","visited_date":"2018-11-10","members":["薮宏太","山田涼介"],"groups":["heysayjump"],"group":"heysayjump","nearest_station":"","tags":[],"thumbnail_url":"https://image.tmdb.org/t/p/w500/fHu3eQ9wF9NiVUXYBMV5e9VbOob.jpg","source_type":"tv","tabelog_score":3.41,"price_range":"-"},{"id":"heysayjump-300a1c2c-20181110","name":"寺子屋本舗 川越店","genre":"sweets","prefecture":"埼玉県","city":"川越市","lat":35.9251145,"lng":139.4856927,"youtube_id":"","source_video_title":"2018.11.10 川越特集","visited_date":"2018-11-10","members":["薮宏太","山田涼介"],"groups":["heysayjump"],"group":"heysayjump","nearest_station":"","tags":[],"thumbnail_url":"https://image.tmdb.org/t/p/w500/fHu3eQ9wF9NiVUXYBMV5e9VbOob.jpg","source_type":"tv","tabelog_score":3.08,"price_range":"-"},{"id":"heysayjump-eea6c892-20181110","name":"松本醤油商店","genre":"others","prefecture":"埼玉県","city":"川越市","lat":35.9251145,"lng":139.4856927,"youtube_id":"","source_video_title":"2018.11.10 川越特集","visited_date":"2018-11-10","members":["薮宏太","山田涼介"],"groups":["heysayjump"],"group":"heysayjump","nearest_station":"","tags":[],"thumbnail_url":"https://image.tmdb.org/t/p/w500/fHu3eQ9wF9NiVUXYBMV5e9VbOob.jpg","source_type":"tv","tabelog_score":3.08,"price_range":"-"},{"id":"heysayjump-0b963b6e-20181124","name":"まことや","genre":"shokuji","prefecture":"埼玉県","city":"川越市","lat":35.9251145,"lng":139.4856927,"youtube_id":"","source_video_title":"2018.11.24 川越特集後編","visited_date":"2018-11-24","members":["伊野尾慧","髙木雄也"],"groups":["heysayjump"],"group":"heysayjump","nearest_station":"","tags":[],"thumbnail_url":"https://image.tmdb.org/t/p/w500/fHu3eQ9wF9NiVUXYBMV5e9VbOob.jpg","source_type":"tv","tabelog_score":3.41,"price_range":"-"},{"id":"heysayjump-243a0b6a-20181124","name":"醤遊王国","genre":"others","prefecture":"埼玉県","city":"川越市","lat":35.9251145,"lng":139.4856927,"youtube_id":"","source_video_title":"2018.11.24 川越特集後編","visited_date":"2018-11-24","members":["伊野尾慧","髙木雄也"],"groups":["heysayjump"],"group":"heysayjump","nearest_station":"","tags":[],"thumbnail_url":"https://image.tmdb.org/t/p/w500/fHu3eQ9wF9NiVUXYBMV5e9VbOob.jpg","source_type":"tv","tabelog_score":3.09,"price_range":"-"},{"id":"heysayjump-6760425c-20181124","name":"東洋堂","genre":"sweets","prefecture":"埼玉県","city":"川越市","lat":35.9251145,"lng":139.4856927,"youtube_id":"","source_video_title":"2018.11.24 川越特集後編","visited_date":"2018-11-24","members":["伊野尾慧","髙木雄也"],"groups":["heysayjump"],"group":"heysayjump","nearest_station":"","tags":[],"thumbnail_url":"https://image.tmdb.org/t/p/w500/fHu3eQ9wF9NiVUXYBMV5e9VbOob.jpg","source_type":"tv","tabelog_score":3.13,"price_range":"-"},{"id":"heysayjump-20173f2d-20181124","name":"餃子菜館 大八","genre":"shokuji","prefecture":"埼玉県","city":"川越市","lat":35.9251145,"lng":139.4856927,"youtube_id":"","source_video_title":"2018.11.24 川越特集後編","visited_date":"2018-11-24","members":["伊野尾慧","髙木雄也"],"groups":["heysayjump"],"group":"heysayjump","nearest_station":"","tags":[],"thumbnail_url":"https://image.tmdb.org/t/p/w500/fHu3eQ9wF9NiVUXYBMV5e9VbOob.jpg","source_type":"tv","tabelog_score":3.28,"price_range":"-"},{"id":"heysayjump-e8d40d3c-20181124","name":"近江屋長兵衛商店","genre":"shokuji","prefecture":"埼玉県","city":"川越市","lat":35.9251145,"lng":139.4856927,"youtube_id":"","source_video_title":"2018.11.24 川越特集後編","visited_date":"2018-11-24","members":["薮宏太","山田涼介"],"groups":["heysayjump"],"group":"heysayjump","nearest_station":"","tags":[],"thumbnail_url":"https://image.tmdb.org/t/p/w500/fHu3eQ9wF9NiVUXYBMV5e9VbOob.jpg","source_type":"tv","tabelog_score":3.54,"price_range":"-"},{"id":"heysayjump-e371a87e-20181124","name":"龜屋 元町店","genre":"shokuji","prefecture":"埼玉県","city":"川越市","lat":35.9251145,"lng":139.4856927,"youtube_id":"","source_video_title":"2018.11.24 川越特集後編","visited_date":"2018-11-24","members":["薮宏太","山田涼介"],"groups":["heysayjump"],"group":"heysayjump","nearest_station":"西武新宿線 本川越駅 徒歩10分","tags":[],"thumbnail_url":"https://image.tmdb.org/t/p/w500/fHu3eQ9wF9NiVUXYBMV5e9VbOob.jpg","source_type":"tv","tabelog_score":3.13,"price_range":"-","closed":true},{"id":"heysayjump-cocoro-20181124","name":"cocoro 川越店","genre":"shokuji","prefecture":"埼玉県","city":"川越市","lat":35.9251145,"lng":139.4856927,"youtube_id":"","source_video_title":"2018.11.24 川越特集後編","visited_date":"2018-11-24","members":["薮宏太","山田涼介"],"groups":["heysayjump"],"group":"heysayjump","nearest_station":"","tags":[],"thumbnail_url":"https://image.tmdb.org/t/p/w500/fHu3eQ9wF9NiVUXYBMV5e9VbOob.jpg","source_type":"tv","tabelog_score":3.19,"price_range":"-"},{"id":"heysayjump-986f7fa5-20181124","name":"松本製菓","genre":"sweets","prefecture":"埼玉県","city":"川越市","lat":35.9251145,"lng":139.4856927,"youtube_id":"","source_video_title":"2018.11.24 川越特集後編","visited_date":"2018-11-24","members":["薮宏太","山田涼介"],"groups":["heysayjump"],"group":"heysayjump","nearest_station":"","tags":[],"thumbnail_url":"https://image.tmdb.org/t/p/w500/fHu3eQ9wF9NiVUXYBMV5e9VbOob.jpg","source_type":"tv","tabelog_score":3.05,"price_range":"-"},{"id":"heysayjump-a5e442e2-201603","name":"赤ちり亭 渋谷本店","genre":"shokuji","prefecture":"東京都","city":"渋谷区","lat":35.6603945,"lng":139.6989446,"youtube_id":"","thumbnail_url":"https://image.tmdb.org/t/p/w500/fHu3eQ9wF9NiVUXYBMV5e9VbOob.jpg","source_type":"tv","source_video_title":"2016.03.03","visited_date":"2016-03-03","members":[],"groups":["heysayjump"],"group":"heysayjump","nearest_station":"渋谷駅 徒歩3分","price_range":"","tags":["いただきハイジャンプ","HeySayJUMP"]},{"id":"heysayjump-new_new_york_club-201610","name":"New NEW YORK CLUB(テイクアウト)","genre":"shokuji","prefecture":"東京都","city":"目黒区","lat":35.6105308,"lng":139.6758726,"youtube_id":"","thumbnail_url":"https://image.tmdb.org/t/p/w500/fHu3eQ9wF9NiVUXYBMV5e9VbOob.jpg","source_type":"tv","source_video_title":"2016.10.26","visited_date":"2016-10-26","members":[],"groups":["heysayjump"],"group":"heysayjump","nearest_station":"緑が丘駅 徒歩9分","price_range":"-","tags":["いただきハイジャンプ","HeySayJUMP"],"tabelog_score":3.16},{"id":"heysayjump-a39d8572-","name":"原っぱ八分目","genre":"shokuji","prefecture":"東京都","city":"渋谷区","lat":35.659072,"lng":139.6979017,"youtube_id":"","source_video_title":"いただきハイジャンプ 2019.07.06 唐揚げブラックジャック","visited_date":"","members":["伊野尾慧","知念侑李"],"groups":["heysayjump"],"group":"heysayjump","nearest_station":"","tags":[],"thumbnail_url":"https://tblg.k-img.com/resize/640x640c/restaurant/images/Rvw/41074/41074829.jpg?token=b0d48bd&api=v2","source_type":"","tabelog_score":3.01,"price_range":"￥2,000～￥2,999"},{"id":"heysayjump-ec693043-","name":"元祖中洲唐揚もりやま 学芸大学店","genre":"shokuji","prefecture":"東京都","city":"目黒区","lat":35.6278194,"lng":139.6855823,"youtube_id":"","source_video_title":"いただきハイジャンプ 2019.07.06 唐揚げブラックジャック","visited_date":"","members":["髙木雄也","八乙女光"],"groups":["heysayjump"],"group":"heysayjump","nearest_station":"","tags":[],"thumbnail_url":"https://tblg.k-img.com/resize/640x640c/restaurant/images/Rvw/176277/1b5e0cb815b5e9d20c24602edff00c94.jpg?token=6cfd92c&api=v2","source_type":"","tabelog_score":3.42,"price_range":"～￥999"},{"id":"heysayjump-ceef2a90-","name":"鶏たつ","genre":"shokuji","prefecture":"東京都","city":"港区","lat":35.6467874,"lng":139.7414307,"youtube_id":"","source_video_title":"いただきハイジャンプ 2019.07.06 唐揚げブラックジャック","visited_date":"","members":["髙木雄也","八乙女光"],"groups":["heysayjump"],"group":"heysayjump","nearest_station":"","tags":[],"thumbnail_url":"https://tblg.k-img.com/resize/640x640c/restaurant/images/Rvw/119377/119377779.jpg?token=e450cb5&api=v2","source_type":"","tabelog_score":3.05,"price_range":"-"},{"id":"heysayjump-bwcafe-","name":"BWCAFE","genre":"cafe","prefecture":"東京都","city":"新宿区","lat":35.7046389,"lng":139.7052761,"youtube_id":"","source_video_title":"ヒルナンデス 2018.08.14 新大久保特集","visited_date":"","members":["伊野尾慧"],"groups":["heysayjump"],"group":"heysayjump","nearest_station":"","tags":[],"thumbnail_url":"https://tblg.k-img.com/resize/640x640c/restaurant/images/Rvw/337789/d88b58e95cc5ea7c39556c107740d9bb.jpg?token=b0f71a0&api=v2","source_type":"","tabelog_score":3.46,"price_range":"￥2,000～￥2,999"},{"id":"heysayjump-tak_cafe-","name":"TAK CAFE","genre":"cafe","prefecture":"東京都","city":"新宿区","lat":35.7046389,"lng":139.7052761,"youtube_id":"","source_video_title":"ヒルナンデス 2018.08.14 新大久保特集","visited_date":"","members":["伊野尾慧"],"groups":["heysayjump"],"group":"heysayjump","nearest_station":"ＪＲ山手線 新大久保駅 徒歩４分","tags":[],"thumbnail_url":"https://tblg.k-img.com/resize/640x640c/restaurant/images/Rvw/349332/f3070fb4bdb2b27791fe5f72aaaded84.jpg?token=9fa1b85&api=v2","source_type":"","tabelog_score":3.29,"price_range":"￥2,000～￥2,999"},{"id":"heysayjump-snowy_village-","name":"Snowy Village","genre":"cafe","prefecture":"東京都","city":"新宿区","lat":35.7046389,"lng":139.7052761,"youtube_id":"","source_video_title":"ヒルナンデス 2018.08.14 新大久保特集","visited_date":"","members":["伊野尾慧"],"groups":["heysayjump"],"group":"heysayjump","nearest_station":"","tags":[],"thumbnail_url":"https://tblg.k-img.com/resize/640x640c/restaurant/images/Rvw/151851/151851342.jpg?token=fb958a2&api=v2","source_type":"","tabelog_score":3.17,"price_range":"-"},{"id":"heysayjump-b9d2eaed-","name":"チョルドゥンノム","genre":"shokuji","prefecture":"東京都","city":"新宿区","lat":35.7046389,"lng":139.7052761,"youtube_id":"","source_video_title":"ヒルナンデス 2018.08.14 新大久保特集","visited_date":"","members":["伊野尾慧"],"groups":["heysayjump"],"group":"heysayjump","nearest_station":"","tags":[],"thumbnail_url":"https://tblg.k-img.com/resize/640x640c/restaurant/images/Rvw/293119/406afe4460bcc0e4e7e579d0c2fab8a4.jpg?token=3a312f0&api=v2","source_type":"","tabelog_score":3.41,"price_range":"￥3,000～￥3,999"},{"id":"heysayjump-good_luck_curry-","name":"GOOD LUCK CURRY","genre":"shokuji","prefecture":"東京都","city":"渋谷区","lat":35.6531376,"lng":139.7114585,"youtube_id":"","source_video_title":"メレンゲの気持ち 2017.07.29","visited_date":"","members":["伊野尾慧"],"groups":["heysayjump"],"group":"heysayjump","nearest_station":"JR恵比寿駅 徒歩6分","tags":[],"thumbnail_url":"https://tblg.k-img.com/resize/640x640c/restaurant/images/Rvw/296885/84924095f46211103a532843212ea14d.jpg?token=a5e5ddb&api=v2","source_type":"","tabelog_score":3.64,"price_range":"-"},{"id":"heysayjump-5f35bf24-","name":"味芳斎","genre":"shokuji","prefecture":"東京都","city":"港区","lat":35.6567524,"lng":139.7537021,"youtube_id":"","source_video_title":"メレンゲの気持ち 2017.07.29","visited_date":"","members":["伊野尾慧"],"groups":["heysayjump"],"group":"heysayjump","nearest_station":"","tags":[],"thumbnail_url":"https://tblg.k-img.com/resize/640x640c/restaurant/images/Rvw/150571/150571641.jpg?token=cad9e4e&api=v2","source_type":"","tabelog_score":3.56,"price_range":"-"},{"id":"heysayjump-0c6ac448-","name":"孔家飯店","genre":"shokuji","prefecture":"東京都","city":"中央区","lat":35.6720135,"lng":139.7647202,"youtube_id":"","source_video_title":"メレンゲの気持ち 2017.07.29","visited_date":"","members":["伊野尾慧"],"groups":["heysayjump"],"group":"heysayjump","nearest_station":"新橋駅 徒歩5分","tags":[],"thumbnail_url":"https://tblg.k-img.com/resize/640x640c/restaurant/images/Rvw/116426/116426897.jpg?token=628e255&api=v2","source_type":"","tabelog_score":3.33,"price_range":"￥5,000～￥5,999"},{"id":"heysayjump-b35ba790-","name":"王ろじ","genre":"shokuji","prefecture":"東京都","city":"新宿区","lat":35.6909589,"lng":139.7053522,"youtube_id":"","source_video_title":"メレンゲの気持ち 2017.07.29","visited_date":"","members":["伊野尾慧"],"groups":["heysayjump"],"group":"heysayjump","nearest_station":"","tags":[],"thumbnail_url":"https://tblg.k-img.com/resize/640x640c/restaurant/images/Rvw/152303/152303737.jpg?token=ae33227&api=v2","source_type":"","tabelog_score":3.49,"price_range":"￥2,000～￥2,999"},{"id":"heysayjump-57062058-","name":"五代目花山うどん","genre":"ramen","prefecture":"東京都","city":"中央区","lat":35.6720135,"lng":139.7647202,"youtube_id":"","source_video_title":"メレンゲの気持ち 2017.07.29","visited_date":"","members":["伊野尾慧"],"groups":["heysayjump"],"group":"heysayjump","nearest_station":"東銀座駅 徒歩3分","tags":[],"thumbnail_url":"https://tblg.k-img.com/resize/640x640c/restaurant/images/Rvw/96525/96525855.jpg?token=91c339f&api=v2","source_type":"","tabelog_score":3.65,"price_range":"￥3,000～￥3,999"},{"id":"heysayjump-cafe-","name":"うさぎやCAFE","genre":"cafe","prefecture":"東京都","city":"台東区","lat":35.7066556,"lng":139.7715506,"youtube_id":"","source_video_title":"メレンゲの気持ち 2017.07.29","visited_date":"","members":["伊野尾慧"],"groups":["heysayjump"],"group":"heysayjump","nearest_station":"","tags":[],"thumbnail_url":"https://tblg.k-img.com/resize/640x640c/restaurant/images/Rvw/188603/c408a6a278af7e5291b1b100869757f8.jpg?token=cd86064&api=v2","source_type":"","tabelog_score":3.72,"price_range":"￥1,000～￥1,999"},{"id":"heysayjump-7b3cff12-","name":"フツウニフルウツ","genre":"cafe","prefecture":"東京都","city":"目黒区","lat":35.6442023,"lng":139.6987133,"youtube_id":"","source_video_title":"メレンゲの気持ち 2017.07.29","visited_date":"","members":["伊野尾慧"],"groups":["heysayjump"],"group":"heysayjump","nearest_station":"","tags":[],"thumbnail_url":"https://tblg.k-img.com/resize/640x640c/restaurant/images/Rvw/363607/2fedee06835f1d0eab4dc4fb1ace5fa5.jpg?token=c07b76b&api=v2","source_type":"","tabelog_score":3.43,"price_range":"-"},{"id":"heysayjump-58cf69d2-","name":"悪酔り大官 なべのしん","genre":"shokuji","prefecture":"東京都","city":"渋谷区","lat":35.6633709,"lng":139.6964952,"youtube_id":"","source_video_title":"めざましテレビ 2017.12.07","visited_date":"","members":["伊野尾慧"],"groups":["heysayjump"],"group":"heysayjump","nearest_station":"","tags":[],"thumbnail_url":"","source_type":""},{"id":"heysayjump-c9cb4f1d-","name":"黒太鼓 池袋店","genre":"shokuji","prefecture":"東京都","city":"豊島区","lat":35.7298752,"lng":139.7112955,"youtube_id":"","source_video_title":"めざましテレビ 2017.12.07","visited_date":"","members":["伊野尾慧"],"groups":["heysayjump"],"group":"heysayjump","nearest_station":"JR・地下鉄・私鉄各線池袋駅 徒歩3分","tags":[],"thumbnail_url":"https://tblg.k-img.com/resize/640x640c/restaurant/images/Rvw/22603/22603545.jpg?token=822ff7f&api=v2","source_type":"","tabelog_score":3.33,"price_range":"￥3,000～￥3,999"},{"id":"heysayjump-f83ecf9a-","name":"七色手毬唄","genre":"shokuji","prefecture":"東京都","city":"新宿区","lat":35.6937632,"lng":139.7036319,"youtube_id":"","source_video_title":"めざましテレビ 2017.12.07","visited_date":"","members":["伊野尾慧"],"groups":["heysayjump"],"group":"heysayjump","nearest_station":"","tags":[],"thumbnail_url":"https://tblg.k-img.com/resize/640x640c/restaurant/images/Rvw/5951/5951098.jpg?token=f6ea7e0&api=v2","source_type":"","tabelog_score":3.43,"price_range":"￥4,000～￥4,999"},{"id":"heysayjump-8456dd80-","name":"パンの蔵","genre":"cafe","prefecture":"神奈川県","city":"中郡大磯町","lat":35.3130669,"lng":139.3249031,"youtube_id":"","source_video_title":"いただきハイジャンプ 2018.06.30・07.07 伊豆箱根ロケ","visited_date":"","members":["伊野尾慧"],"groups":["heysayjump"],"group":"heysayjump","nearest_station":"","tags":[],"thumbnail_url":"https://tblg.k-img.com/resize/640x640c/restaurant/images/Rvw/211430/bb383aa5e2f8852418239c8412e2411b.jpg?token=5af9e43&api=v2","source_type":"","tabelog_score":3.21,"price_range":"-"},{"id":"heysayjump-e3968f82-","name":"箱根ベーカリー 箱根湯本本店","genre":"cafe","prefecture":"神奈川県","city":"足柄下郡箱根町","lat":35.222086,"lng":139.089696,"youtube_id":"","source_video_title":"いただきハイジャンプ 2018.06.30・07.07 伊豆箱根ロケ","visited_date":"","members":["伊野尾慧"],"groups":["heysayjump"],"group":"heysayjump","nearest_station":"","tags":[],"thumbnail_url":"https://tblg.k-img.com/resize/640x640c/restaurant/images/Rvw/14659/14659732.jpg?token=ae1ad15&api=v2","source_type":"","tabelog_score":3.07,"price_range":"-"},{"id":"heysayjump-327a7b7e-","name":"山六ひもの店 総本店","genre":"shokuji","prefecture":"静岡県","city":"伊東市","lat":34.972512,"lng":139.098884,"youtube_id":"","source_video_title":"いただきハイジャンプ 2018.06.30・07.07 伊豆箱根ロケ","visited_date":"","members":["伊野尾慧"],"groups":["heysayjump"],"group":"heysayjump","nearest_station":"","tags":[],"thumbnail_url":"https://tblg.k-img.com/resize/640x640c/restaurant/images/Rvw/279453/a7a1e7785f6bbbf40d02122b5214a7e5.jpg?token=56a4ed8&api=v2","source_type":"","tabelog_score":3.06,"price_range":"-"},{"id":"heysayjump-1ad96303-","name":"伊豆高原ビール うまいもん処","genre":"shokuji","prefecture":"静岡県","city":"伊東市","lat":34.878274,"lng":139.085521,"youtube_id":"","source_video_title":"いただきハイジャンプ 2018.06.30・07.07 伊豆箱根ロケ","visited_date":"","members":["伊野尾慧"],"groups":["heysayjump"],"group":"heysayjump","nearest_station":"","tags":[],"thumbnail_url":"https://tblg.k-img.com/resize/640x640c/restaurant/images/Rvw/192799/0cc58e49454168a93f3c616ee3b170b7.jpg?token=cf68750&api=v2","source_type":"","tabelog_score":3.44,"price_range":"￥2,000～￥2,999"},{"id":"heysayjump-33e9989a-","name":"あじろ食堂","genre":"shokuji","prefecture":"静岡県","city":"熱海市","lat":35.0437146,"lng":139.0811875,"youtube_id":"","source_video_title":"いただきハイジャンプ 2018.06.30・07.07 伊豆箱根ロケ","visited_date":"","members":["伊野尾慧"],"groups":["heysayjump"],"group":"heysayjump","nearest_station":"","tags":[],"thumbnail_url":"https://tblg.k-img.com/resize/640x640c/restaurant/images/Rvw/296795/68ef92c49a31a7493c0b2dd034b24c8d.jpg?token=6ae37b6&api=v2","source_type":"","tabelog_score":3.21,"price_range":"￥1,000～￥1,999"},{"id":"heysayjump-7cd20f9d-","name":"もやし専門店 もやし","genre":"shokuji","prefecture":"東京都","city":"渋谷区","lat":35.6633709,"lng":139.6964952,"youtube_id":"","source_video_title":"めざましテレビ 2017.05.25","visited_date":"","members":["伊野尾慧"],"groups":["heysayjump"],"group":"heysayjump","nearest_station":"JR渋谷駅 徒歩3分","tags":[],"thumbnail_url":"https://tblg.k-img.com/resize/640x640c/restaurant/images/Rvw/76022/76022939.jpg?token=debffad&api=v2","source_type":"","tabelog_score":3.23,"price_range":"￥3,000～￥3,999"},{"id":"heysayjump-all_about_my_croquet-","name":"All About My Croquette","genre":"shokuji","prefecture":"東京都","city":"世田谷区","lat":35.6469025,"lng":139.652531,"youtube_id":"","source_video_title":"めざましテレビ 2017.05.25","visited_date":"","members":["伊野尾慧"],"groups":["heysayjump"],"group":"heysayjump","nearest_station":"","tags":[],"thumbnail_url":"","source_type":""},{"id":"heysayjump-mushroom_tokyo-","name":"MUSHROOM TOKYO","genre":"cafe","prefecture":"東京都","city":"渋谷区","lat":35.6633709,"lng":139.6964952,"youtube_id":"","source_video_title":"めざましテレビ 2017.05.25","visited_date":"","members":["伊野尾慧"],"groups":["heysayjump"],"group":"heysayjump","nearest_station":"","tags":[],"thumbnail_url":"https://tblg.k-img.com/resize/640x640c/restaurant/images/Rvw/352003/3f7e3f5e342197065a7cafaeb735803c.jpg?token=fc88f70&api=v2","source_type":"","tabelog_score":3.44,"price_range":"￥10,000～￥14,999"},{"id":"heysayjump-tsumugi-","name":"築地本願寺カフェ Tsumugi","genre":"cafe","prefecture":"東京都","city":"中央区","lat":35.6650914,"lng":139.7708281,"youtube_id":"","source_video_title":"めざましテレビ 2018.10.04","visited_date":"","members":["伊野尾慧"],"groups":["heysayjump"],"group":"heysayjump","nearest_station":"","tags":[],"thumbnail_url":"https://tblg.k-img.com/resize/640x640c/restaurant/images/Rvw/294142/9570aa84b3c41ea3d4ccfb38da362323.jpg?token=1b826f5&api=v2","source_type":"","tabelog_score":3.6,"price_range":"￥2,000～￥2,999"},{"id":"heysayjump-b6634ea5-","name":"寺カフェ","genre":"cafe","prefecture":"東京都","city":"渋谷区","lat":35.6481373,"lng":139.7032756,"youtube_id":"","source_video_title":"めざましテレビ 2018.10.04","visited_date":"","members":["伊野尾慧"],"groups":["heysayjump"],"group":"heysayjump","nearest_station":"","tags":[],"thumbnail_url":"https://tblg.k-img.com/resize/640x640c/restaurant/images/Rvw/294142/9570aa84b3c41ea3d4ccfb38da362323.jpg?token=1b826f5&api=v2","source_type":"","tabelog_score":3.6,"price_range":"￥2,000～￥2,999"},{"id":"95fa12cb","name":"SUNDAY","genre":"others","prefecture":"東京都","city":"千代田区","lat":35.70134473789298,"lng":139.75104778343663,"source_video_title":"Hey!Say!JUMP ロケ地","visited_date":"2024-01-01","members":[],"groups":["heysayjump"],"group":"heysayjump","source_type":"tv","thumbnail_url":"https://tblg.k-img.com/resize/640x640c/restaurant/images/Rvw/360108/ab959e73acd1db64ba9cf9323ab9e07d.jpg?token=45653ab&api=v2","tabelog_score":3.48,"price_range":"￥4,000～￥4,999","nearest_station":"JR中央線 水道橋駅 西口 徒歩2分都営三田線 水道橋駅 A2番出口 徒歩5分地下鉄丸ノ内線 後楽園駅 徒歩7分"},{"id":"069d6a42","name":"玉英堂 彦九郎","genre":"sweets","prefecture":"東京都","city":"中央区","lat":35.68510716871903,"lng":139.78359330441157,"source_video_title":"いただきハイジャンプ（Hey!Say!JUMP）","visited_date":"2024-01-01","members":[],"groups":["heysayjump"],"group":"heysayjump","source_type":"tv","thumbnail_url":"https://tblg.k-img.com/resize/640x640c/restaurant/images/Rvw/280720/ce291e550d57ed9656dc005f1c8d4510.jpg?token=2d62fe6&api=v2","tabelog_score":3.74,"price_range":"-"},{"id":"dc3a86f8","name":"512 CAFE & GRILL","genre":"cafe","prefecture":"東京都","city":"港区","lat":35.66747121871306,"lng":139.7297062142712,"source_video_title":"Hey!Say!JUMP ロケ地","visited_date":"2024-01-01","members":[],"groups":["heysayjump"],"group":"heysayjump","source_type":"tv","thumbnail_url":"https://tblg.k-img.com/resize/640x640c/restaurant/images/Rvw/271157/9f1127f5947be63e5f24ff657d31ff6d.jpg?token=6c8287e&api=v2","tabelog_score":3.55,"price_range":"￥5,000～￥5,999"},{"id":"6a73cac3","name":"サニーダイナー 本店","genre":"others","prefecture":"東京都","city":"足立区","lat":35.75169333787733,"lng":139.80233678390923,"source_video_title":"Hey!Say!JUMP ロケ地","visited_date":"2024-01-01","members":[],"groups":["heysayjump"],"group":"heysayjump","source_type":"tv","thumbnail_url":"https://tblg.k-img.com/resize/640x640c/restaurant/images/Rvw/311248/3181d3d03840ab29fde111b8142c132e.jpg?token=08ef88e&api=v2","tabelog_score":3.5,"price_range":"￥1,000～￥1,999"}]