[{"id":"kamenashi-ushigoro_s_ginza-20250816","name":"USHIGORO S. GINZA","genre":"焼肉","prefecture":"東京都","city":"中央区","lat":35.6745006,"lng":139.7676782,"youtube_id":"2F4xUoo5GSM","source_video_title":"【夏休み】Snow Man渡辺翔太と東京の高級焼肉店でディナー！ゲスト松原タニシさんも迎えてゾクっとする話。","visited_date":"2025-08-16","members":["亀梨和也"],"groups":["kamenashi"],"group":"kamenashi","nearest_station":"銀座一丁目駅 徒歩1分","tags":[],"thumbnail_url":"https://img.youtube.com/vi/2F4xUoo5GSM/hqdefault.jpg","tabelog_score":3.98,"price_range":"￥20,000～￥29,999"},{"id":"kamenashi-9398d442-202508","name":"銀座風香","genre":"スイーツ","prefecture":"東京都","city":"中央区","lat":35.6720135,"lng":139.7647202,"youtube_id":"xbEXP_yd8l0","source_video_title":"【贅沢】Snow Man渡辺翔太と絶品かき氷屋さんへ！神のクオリティの味に2人とも悶絶してしまいました。","visited_date":"2025-08-09","members":["亀梨和也"],"groups":["kamenashi"],"group":"kamenashi","nearest_station":"「東銀座駅」より徒歩7分「築地駅」「新富町駅」より徒歩2分","tags":[],"thumbnail_url":"https://img.youtube.com/vi/xbEXP_yd8l0/hqdefault.jpg","tabelog_score":3.2,"price_range":"￥6,000～￥7,999"},{"id":"kamenashi-b2d66125-202507","name":"盛楼閣","genre":"ラーメン","prefecture":"岩手県","city":"盛岡市","lat":39.7028311,"lng":141.1365474,"youtube_id":"WxKvyUgzG40","source_video_title":"【🍜】亀梨和也、本場岩手の盛岡冷麺を食べる。お仕事の前日に絶品焼肉と冷麺爆食いで優勝！","visited_date":"2025-07-19","members":["亀梨和也"],"groups":["kamenashi"],"group":"kamenashi","nearest_station":"盛岡駅 徒歩2分","tags":[],"thumbnail_url":"https://img.youtube.com/vi/WxKvyUgzG40/hqdefault.jpg","tabelog_score":3.72,"price_range":"￥1,000～￥1,999"},{"id":"kamenashi-bullajo-202504","name":"ガーリックステーキ Bullajo","genre":"焼肉","prefecture":"東京都","city":"渋谷区","lat":35.6626537,"lng":139.6972756,"youtube_id":"zlVJ4MBzmuw","source_video_title":"【絶品】大量ガーリックが罪深い。。。渋谷の奥に潜む隠れ家ステーキハウスで爆食いして過酷な撮影に向けたパワーをチャージしてきました！","visited_date":"2025-04-30","members":["亀梨和也"],"groups":["kamenashi"],"group":"kamenashi","nearest_station":"渋谷駅 徒歩8分","tags":[],"thumbnail_url":"https://img.youtube.com/vi/zlVJ4MBzmuw/hqdefault.jpg","tabelog_score":3.38,"price_range":"￥3,000～￥3,999","closed":true},{"id":"kamenashi-95d73497-202504","name":"牛骨ごっつおらーめん 鳥取店","genre":"ラーメン","prefecture":"鳥取県","city":"鳥取市","lat":35.4943948,"lng":134.2219282,"youtube_id":"QJNOclrBszU","source_video_title":"【旨】撮影終わりのラーメンが沁みる。。。鳥取で仕事終わりに牛骨ラーメンを食べに行きました！","visited_date":"2025-04-16","members":["亀梨和也"],"groups":["kamenashi"],"group":"kamenashi","nearest_station":"鳥取駅 徒歩6分","tags":[],"thumbnail_url":"https://img.youtube.com/vi/QJNOclrBszU/hqdefault.jpg"},{"id":"kamenashi-6d080bbe-202503","name":"もんじゃ 竹の子","genre":"もんじゃ","prefecture":"東京都","city":"中央区","lat":35.6649448,"lng":139.783132,"youtube_id":"rRtQ8rhdXno","source_video_title":"【爆食】江戸っ子亀梨の大好物！東京月島 おたけさんのお店でもんじゃ焼きをたくさん食べます！","visited_date":"2025-03-29","members":["亀梨和也"],"groups":["kamenashi"],"group":"kamenashi","nearest_station":"月島駅 徒歩2分","tags":[],"thumbnail_url":"https://img.youtube.com/vi/rRtQ8rhdXno/hqdefault.jpg","tabelog_score":3.46,"price_range":"￥4,000～￥4,999"},{"id":"kamenashi-95af1b87-202501","name":"日生家","genre":"食事","prefecture":"岡山県","city":"備前市","lat":34.6993156,"lng":134.2550479,"youtube_id":"8-pKbYjUTc4","source_video_title":"【1周年企画】Snow Man 宮舘涼太と鈴木福と豪華岡山旅！カキとビールで最高の昼飲み！","visited_date":"2025-01-11","members":["亀梨和也"],"groups":["kamenashi"],"group":"kamenashi","nearest_station":"","tags":[],"thumbnail_url":"https://img.youtube.com/vi/8-pKbYjUTc4/hqdefault.jpg","tabelog_score":3.16,"price_range":"-"},{"id":"kamenashi-off_kinosaki-20241218","name":"OFF KINOSAKI","genre":"食事","prefecture":"兵庫県","city":"豊岡市","lat":35.6250563,"lng":134.8078659,"youtube_id":"10CFRaEzqS8","source_video_title":"【密着】MAQUIAの撮影裏側。高級カニを贅沢に食べたり豪華フルーツ盛りを頂いたり。","visited_date":"2024-12-18","members":["亀梨和也"],"groups":["kamenashi"],"group":"kamenashi","nearest_station":"城崎温泉駅 徒歩9分","tags":[],"thumbnail_url":"https://img.youtube.com/vi/10CFRaEzqS8/hqdefault.jpg","tabelog_score":3.21,"price_range":"-"},{"id":"kamenashi-27f41658-202412","name":"う福 大井町","genre":"居酒屋","prefecture":"東京都","city":"品川区","lat":35.6075883,"lng":139.7359878,"youtube_id":"vV651O-moMA","source_video_title":"【語る】WEST.藤井流星としっぽり2軒目。仕事論や人生論、今後の人生について語りました。","visited_date":"2024-12-11","members":["亀梨和也"],"groups":["kamenashi"],"group":"kamenashi","nearest_station":"大井町駅 徒歩2分","tags":[],"thumbnail_url":"https://img.youtube.com/vi/vV651O-moMA/hqdefault.jpg","tabelog_score":3.43,"price_range":"￥3,000～￥3,999"},{"id":"kamenashi-beschle-20241116","name":"Beschle","genre":"居酒屋","prefecture":"","city":"","lat":47.5596,"lng":7.5886,"youtube_id":"3ZnxNCg-uHg","source_video_title":"【超高額】本場スイスでパテックフィリップに来店。3000万円の時計に出会い手が震えます。。。","visited_date":"2024-11-16","members":["亀梨和也"],"groups":["kamenashi"],"group":"kamenashi","nearest_station":"JR山手線 有楽町駅 徒歩6分","tags":[],"thumbnail_url":"https://img.youtube.com/vi/3ZnxNCg-uHg/hqdefault.jpg","tabelog_score":3.32,"price_range":"￥10,000～￥14,999"},{"id":"kamenashi-le_rhin_bleu-20241116","name":"Le Rhin Bleu","genre":"食事","prefecture":"","city":"","lat":47.5573,"lng":7.5913,"youtube_id":"3ZnxNCg-uHg","source_video_title":"【超高額】本場スイスでパテックフィリップに来店。3000万円の時計に出会い手が震えます。。。","visited_date":"2024-11-16","members":["亀梨和也"],"groups":["kamenashi"],"group":"kamenashi","nearest_station":"Marktplatz駅 徒歩4分","tags":[],"thumbnail_url":"https://img.youtube.com/vi/3ZnxNCg-uHg/hqdefault.jpg"},{"id":"kamenashi-0a3faf7a-202410","name":"一蘭 原宿店","genre":"ラーメン","prefecture":"東京都","city":"渋谷区","lat":35.6679219,"lng":139.7052087,"youtube_id":"hLEUaWy6_kU","source_video_title":"【数年ぶり】Snow Man ダテっちょと念願の一蘭でラーメン！こだわりのトッピングと味集中モードで最高の時間。","visited_date":"2024-10-16","members":["亀梨和也"],"groups":["kamenashi"],"group":"kamenashi","nearest_station":"明治神宮前〈原宿〉駅 徒歩1分","tags":[],"thumbnail_url":"https://img.youtube.com/vi/hLEUaWy6_kU/hqdefault.jpg","tabelog_score":3.09,"price_range":"￥1,000～￥1,999"},{"id":"kamenashi-b68dd10a-202410","name":"大徳壽 みなとみらい店","genre":"焼肉","prefecture":"神奈川県","city":"横浜市","lat":35.4572327,"lng":139.6328453,"youtube_id":"LaNwtYYQ3Wo","source_video_title":"【夜景】なにわ男子 道枝駿佑と夜景が見える上空の焼肉屋さんで豪華焼肉パーティー！","visited_date":"2024-10-02","members":["亀梨和也"],"groups":["kamenashi"],"group":"kamenashi","nearest_station":"JR桜木町駅北改札直結JR/横浜市営地下鉄桜木町駅から徒歩1分みなとみらい線みなとみらい駅 徒歩7分","tags":[],"thumbnail_url":"https://img.youtube.com/vi/LaNwtYYQ3Wo/hqdefault.jpg","tabelog_score":3.51,"price_range":"￥6,000～￥7,999"},{"id":"kamenashi-814e2aa9-202408","name":"焼肉 冷麺 ユッチャン。銀座店","genre":"ラーメン","prefecture":"東京都","city":"中央区","lat":35.6709612,"lng":139.7643214,"youtube_id":"47QSe1T9ffo","source_video_title":"【ぼっち】亀梨和也の1人ごはん。ハワイの思い出の冷麺を食べてガッツポーズ。","visited_date":"2024-08-24","members":["亀梨和也"],"groups":["kamenashi"],"group":"kamenashi","nearest_station":"銀座駅 徒歩2分","tags":[],"thumbnail_url":"https://img.youtube.com/vi/47QSe1T9ffo/hqdefault.jpg","tabelog_score":3.54,"price_range":"￥8,000～￥9,999"},{"id":"kamenashi-bb9f32ec-202408","name":"華 千房 恵比寿ガーデンプレイス店","genre":"もんじゃ","prefecture":"東京都","city":"渋谷区","lat":35.64696,"lng":139.7086658,"youtube_id":"7EV_r_en6RA","source_video_title":"【妖怪人間】かつての仲間、杏ちゃんと鈴木福くんと再会してディナーに向かってドライブをします！","visited_date":"2024-08-03","members":["亀梨和也"],"groups":["kamenashi"],"group":"kamenashi","nearest_station":"恵比寿駅 徒歩1分","tags":[],"thumbnail_url":"https://img.youtube.com/vi/7EV_r_en6RA/hqdefault.jpg","tabelog_score":3.14,"price_range":"￥6,000～￥7,999"},{"id":"kamenashi-df0d89b3-202407","name":"焼肉古今","genre":"焼肉","prefecture":"東京都","city":"港区","lat":35.6611721,"lng":139.7258364,"youtube_id":"33tz7AoUPuU","source_video_title":"【ぼっち】亀梨和也がひとりで焼肉を食べるだけの動画。","visited_date":"2024-07-27","members":["亀梨和也"],"groups":["kamenashi"],"group":"kamenashi","nearest_station":"六本木駅 徒歩9分","tags":[],"thumbnail_url":"https://img.youtube.com/vi/33tz7AoUPuU/hqdefault.jpg","tabelog_score":3.26,"price_range":"￥15,000～￥19,999"},{"id":"kamenashi-6606003d-202407","name":"屋台 ひでちゃんラーメン","genre":"ラーメン","prefecture":"福岡県","city":"福岡市","lat":33.5901826,"lng":130.4086049,"youtube_id":"nBtgifut7vE","source_video_title":"【爆飲み】福岡の屋台で1人飲みをしていたらお客さんとのトークが楽しすぎてどんどん飲んで酔っ払ってしまいました。","visited_date":"2024-07-06","members":["亀梨和也"],"groups":["kamenashi"],"group":"kamenashi","nearest_station":"櫛田神社前駅 徒歩5分","tags":[],"thumbnail_url":"https://img.youtube.com/vi/nBtgifut7vE/hqdefault.jpg","tabelog_score":3.32,"price_range":"￥1,000～￥1,999"},{"id":"kamenashi-glams_bbq_lounge-202405","name":"原宿GLAMS BBQ Lounge","genre":"焼肉","prefecture":"東京都","city":"渋谷区","lat":35.6687049,"lng":139.7053357,"youtube_id":"qWliiMG-FZA","source_video_title":"【グローブあり】なにわ男子 藤原丈一郎と東京のど真ん中でBBQをしたら幸せすぎた！","visited_date":"2024-05-25","members":["亀梨和也"],"groups":["kamenashi"],"group":"kamenashi","nearest_station":"JR原宿駅 徒歩7分","tags":[],"thumbnail_url":"https://img.youtube.com/vi/qWliiMG-FZA/hqdefault.jpg","tabelog_score":3.04,"price_range":"￥6,000～￥7,999"},{"id":"kamenashi-17aff7bc-202405","name":"壹銭洋食 本店","genre":"もんじゃ","prefecture":"京都府","city":"京都市","lat":34.6820484,"lng":135.1751003,"youtube_id":"mOC7wSoPSyc","source_video_title":"【vlog】久しぶりのオフの日京都旅vlog🌸たくさん食べて、リフレッシュしてきました！","visited_date":"2024-05-11","members":["亀梨和也"],"groups":["kamenashi"],"group":"kamenashi","nearest_station":"高速神戸駅 徒歩4分","tags":[],"thumbnail_url":"https://img.youtube.com/vi/mOC7wSoPSyc/hqdefault.jpg","tabelog_score":3.49,"price_range":"￥1,000～￥1,999"},{"id":"kamenashi-34069a08-202405","name":"釣船茶屋 ざうお 新宿店","genre":"居酒屋","prefecture":"東京都","city":"新宿区","lat":35.6904488,"lng":139.6990389,"youtube_id":"SSwnM6BcHuE","source_video_title":"【大漁】なにわ男子 高橋恭平と釣りができる居酒屋で釣って食べまくる！","visited_date":"2024-05-08","members":["亀梨和也"],"groups":["kamenashi"],"group":"kamenashi","nearest_station":"新宿駅 徒歩1分","tags":[],"thumbnail_url":"https://img.youtube.com/vi/SSwnM6BcHuE/hqdefault.jpg","tabelog_score":3.3,"price_range":"￥4,000～￥4,999"},{"id":"kamenashi-e27eb84b-202404","name":"九州じゃんがら原宿店","genre":"ラーメン","prefecture":"東京都","city":"渋谷区","lat":35.6687049,"lng":139.7053357,"youtube_id":"Yh0PvWpXNoY","source_video_title":"【爆食】亀梨&越岡がジュニア時代に通った思い出のじゃんがららーめんで濃厚豚骨ラーメンをお腹いっぱい食べる。","visited_date":"2024-04-13","members":["亀梨和也"],"groups":["kamenashi"],"group":"kamenashi","nearest_station":"明治神宮前〈原宿〉駅 徒歩1分","tags":[],"thumbnail_url":"https://img.youtube.com/vi/Yh0PvWpXNoY/hqdefault.jpg","tabelog_score":3.11,"price_range":"￥1,000～￥1,999"},{"id":"kamenashi-hohokam_diner-20240413","name":"Hohokam DINER","genre":"ラーメン","prefecture":"東京都","city":"渋谷区","lat":35.6698981,"lng":139.7035252,"youtube_id":"Yh0PvWpXNoY","source_video_title":"【爆食】亀梨&越岡がジュニア時代に通った思い出のじゃんがららーめんで濃厚豚骨ラーメンをお腹いっぱい食べる。","visited_date":"2024-04-13","members":["亀梨和也"],"groups":["kamenashi"],"group":"kamenashi","nearest_station":"原宿駅 徒歩2分","tags":[],"thumbnail_url":"https://img.youtube.com/vi/Yh0PvWpXNoY/hqdefault.jpg","tabelog_score":3.41,"price_range":"￥2,000～￥2,999"},{"id":"kamenashi-7cbda6f7-202404","name":"辛麺屋桝元 赤江店","genre":"ラーメン","prefecture":"宮崎県","city":"宮崎市","lat":31.8748654,"lng":131.4230903,"youtube_id":"fqUI15scR4o","source_video_title":"【激辛⁉】亀梨和也、宮崎で真っ赤な辛麺を食べる。","visited_date":"2024-04-06","members":["亀梨和也"],"groups":["kamenashi"],"group":"kamenashi","nearest_station":"田吉駅 徒歩14分","tags":[],"thumbnail_url":"https://img.youtube.com/vi/fqUI15scR4o/hqdefault.jpg","tabelog_score":3.07,"price_range":"￥1,000～￥1,999"},{"id":"kamenashi-3a7e3c9a-202402","name":"鳥焼 萬歳亭","genre":"居酒屋","prefecture":"宮崎県","city":"宮崎市","lat":31.920779,"lng":131.426335,"youtube_id":"Q-BcioViZcc","source_video_title":"【晩酌】亀梨和也、宮崎の地鶏としっぽり1人飲み。","visited_date":"2024-02-28","members":["亀梨和也"],"groups":["kamenashi"],"group":"kamenashi","nearest_station":"宮崎駅 徒歩13分","tags":[],"thumbnail_url":"https://img.youtube.com/vi/Q-BcioViZcc/hqdefault.jpg","tabelog_score":3.38,"price_range":"￥3,000～￥3,999"},{"id":"kamenashi-1f6dffde-202402","name":"夷川餃子なかじま","genre":"中華","prefecture":"","city":"","lat":35.0145937,"lng":135.7516699,"youtube_id":"V3HCRaq5zYs","source_video_title":"【大奥】ドラマ撮影の空き時間はこんな感じ。京都で餃子を食べたり街を散歩したり。","visited_date":"2024-02-03","members":["亀梨和也"],"groups":["kamenashi"],"group":"kamenashi","nearest_station":"二条城前駅 徒歩5分","tags":[],"thumbnail_url":"https://img.youtube.com/vi/V3HCRaq5zYs/hqdefault.jpg"},{"id":"kamenashi-41feca79-202505","name":"ミートファクトリーしまちゃん","genre":"焼肉","prefecture":"大阪府","city":"堺市堺区","lat":34.579238,"lng":135.4764375,"youtube_id":"chtW4R82cOg","source_video_title":"【一人焼肉】亀梨和也、大阪の街でぼっち焼肉。幸せな時間。","visited_date":"2025-05-21","members":["亀梨和也"],"groups":["kamenashi"],"group":"kamenashi","nearest_station":"大小路駅 徒歩3分","tags":[],"thumbnail_url":"https://img.youtube.com/vi/chtW4R82cOg/hqdefault.jpg","tabelog_score":3.18,"price_range":"￥5,000～￥5,999"},{"id":"kamenashi-808fe940-202503","name":"リステア","genre":"食事","prefecture":"東京都","city":"港区","lat":35.6667323,"lng":139.7309312,"youtube_id":"G921cu9t2DM","source_video_title":"【買い物】高級セレクトショップリステアで過去イチの爆買い！亀梨の財布の紐は完全に崩壊してしまいました。","visited_date":"2025-03-12","members":["亀梨和也"],"groups":["kamenashi"],"group":"kamenashi","nearest_station":"六本木駅 徒歩6分","tags":[],"thumbnail_url":"https://img.youtube.com/vi/G921cu9t2DM/hqdefault.jpg","tabelog_score":3.08,"price_range":"-"},{"id":"kamenashi-e61d8104-202502","name":"手打釜揚げうどん 岩見","genre":"ラーメン","prefecture":"宮崎県","city":"宮崎市","lat":31.8011451,"lng":131.4680352,"youtube_id":"A55nuJrv8yE","source_video_title":"【至福】亀梨が10年以上通い続ける、宮崎の絶品うどん屋さんに今年もお邪魔します。","visited_date":"2025-02-22","members":["亀梨和也"],"groups":["kamenashi"],"group":"kamenashi","nearest_station":"JR日豊本線・日向住吉駅 徒歩13分","tags":[],"thumbnail_url":"https://img.youtube.com/vi/A55nuJrv8yE/hqdefault.jpg","tabelog_score":3.32,"price_range":"￥1,000～￥1,999"},{"id":"kamenashi-c3b4e8da-202408","name":"布恒更科","genre":"和食","prefecture":"東京都","city":"品川区","lat":35.5901443,"lng":139.7347172,"youtube_id":"K7VI68XxpRk","source_video_title":"【爆食】Travis Japan七五三掛龍也 初の蕎麦打ち体験！お互いの蕎麦を食べ比べてみました。","visited_date":"2024-08-17","members":["亀梨和也"],"groups":["kamenashi"],"group":"kamenashi","nearest_station":"大森海岸駅 徒歩5分","tags":[],"thumbnail_url":"https://img.youtube.com/vi/K7VI68XxpRk/hqdefault.jpg","tabelog_score":3.67,"price_range":"￥1,000～￥1,999"},{"id":"kamenashi-223-202404","name":"鶏そば２２３","genre":"ラーメン","prefecture":"京都府","city":"京都市","lat":35.0446733,"lng":135.765823,"youtube_id":"VIXIy62I0Xo","source_video_title":"【朝食】京都の朝。一人で濃厚ラーメンをすすります。","visited_date":"2024-04-24","members":["亀梨和也"],"groups":["kamenashi"],"group":"kamenashi","nearest_station":"北大路駅 徒歩11分","tags":[],"thumbnail_url":"https://img.youtube.com/vi/VIXIy62I0Xo/hqdefault.jpg","tabelog_score":3.45,"price_range":"-"},{"id":"kamenashi-223-202401","name":"自家製麺223","genre":"ラーメン","prefecture":"東京都","city":"新宿区","lat":35.7038073,"lng":139.6915001,"youtube_id":"HjLd3wFnPvc","source_video_title":"【ニンニク】亀梨和也、初めての！？二郎系ラーメン","visited_date":"2024-01-10","members":["亀梨和也"],"groups":["kamenashi"],"group":"kamenashi","nearest_station":"大久保駅 徒歩10分","tags":[],"thumbnail_url":"https://img.youtube.com/vi/HjLd3wFnPvc/hqdefault.jpg","tabelog_score":3.57,"price_range":"～￥999"}]