[{"id":"kimura-ab0388de-20240422","name":"デモデダイナー","genre":"食事","prefecture":"東京都","city":"福生市","lat":35.7386772,"lng":139.3267856,"youtube_id":"","source_video_title":"","visited_date":"2024-04-22","members":["木村拓哉"],"groups":["kimura"],"group":"kimura","nearest_station":"福生駅 徒歩7分","tags":[],"thumbnail_url":"https://tblg.k-img.com/resize/640x640c/restaurant/images/Rvw/55725/55725027.jpg?token=192d9c5&api=v2","source_type":"","tabelog_score":3.48,"price_range":"￥2,000～￥2,999"},{"id":"kimura-cafe_nun-20240501","name":"cafe nun","genre":"食事","prefecture":"千葉県","city":"","lat":35.5241,"lng":140.3894,"youtube_id":"","source_video_title":"","visited_date":"2024-05-01","members":["木村拓哉"],"groups":["kimura"],"group":"kimura","nearest_station":"","tags":[],"thumbnail_url":"https://tblg.k-img.com/resize/640x640c/restaurant/images/Rvw/52546/52546212.jpg?token=554520b&api=v2","source_type":"","tabelog_score":3.08,"price_range":"-"},{"id":"kimura-trufflebakery-20240417","name":"TruffleBAKERY三軒茶屋店","genre":"食事","prefecture":"東京都","city":"世田谷区","lat":35.6469025,"lng":139.652531,"youtube_id":"","source_video_title":"","visited_date":"2024-04-17","members":["木村拓哉"],"groups":["kimura"],"group":"kimura","nearest_station":"松陰神社前駅 徒歩7分","tags":[],"thumbnail_url":"https://tblg.k-img.com/resize/640x640c/restaurant/images/Rvw/121123/121123710.jpg?token=a20e364&api=v2","source_type":"","tabelog_score":3.5,"price_range":"～￥999"},{"id":"kimura-37fc6d77-20240417","name":"エブリデイミールズ","genre":"食事","prefecture":"東京都","city":"世田谷区","lat":35.6469025,"lng":139.652531,"youtube_id":"","source_video_title":"","visited_date":"2024-04-17","members":["木村拓哉"],"groups":["kimura"],"group":"kimura","nearest_station":"松陰神社前駅 徒歩7分","tags":[],"thumbnail_url":"https://cdn-ak.f.st-hatena.com/images/fotolife/y/yoyaku_com/20240426/20240426135041.jpg","source_type":""},{"id":"kimura-bondi_cafe-20240406","name":"BONDI CAFE","genre":"食事","prefecture":"東京都","city":"港区","lat":35.6514717,"lng":139.722772,"youtube_id":"","source_video_title":"","visited_date":"2024-04-06","members":["木村拓哉"],"groups":["kimura"],"group":"kimura","nearest_station":"中目黑駅 徒歩5分","tags":[],"thumbnail_url":"https://tblg.k-img.com/resize/640x640c/restaurant/images/Rvw/345658/b7c3c779658030f3f831db437a0eb168.jpg?token=7b9b5b4&api=v2","source_type":"","tabelog_score":3.36,"price_range":"￥4,000～￥4,999"},{"id":"kimura-573599de-20240401","name":"生蕎麦朝日屋","genre":"食事","prefecture":"東京都","city":"渋谷区","lat":35.6633709,"lng":139.6964952,"youtube_id":"","source_video_title":"","visited_date":"2024-04-01","members":["木村拓哉"],"groups":["kimura"],"group":"kimura","nearest_station":"渋谷駅 徒歩10分","tags":[],"thumbnail_url":"https://tblg.k-img.com/resize/640x640c/restaurant/images/Rvw/262564/57b5504af244e9b615066f54be5e80fb.jpg?token=97f3a0d&api=v2","source_type":"","tabelog_score":3.39,"price_range":"￥4,000～￥4,999"},{"id":"kimura-9b17c19d-20240320","name":"山田うどん食堂","genre":"食事","prefecture":"埼玉県","city":"草加市","lat":35.8136263,"lng":139.8013446,"youtube_id":"","source_video_title":"","visited_date":"2024-03-20","members":["木村拓哉"],"groups":["kimura"],"group":"kimura","nearest_station":"谷塚駅 徒歩1分","tags":[],"thumbnail_url":"https://tblg.k-img.com/resize/640x640c/restaurant/images/Rvw/331179/7d2fd9a6f95b3ae670ead973dc141e9a.jpg?token=1f7e582&api=v2","source_type":"","tabelog_score":3.17,"price_range":"～￥999"},{"id":"kimura-1937ff35-20240224","name":"粋廉","genre":"食事","prefecture":"京都府","city":"京都市","lat":35.0116,"lng":135.7682,"youtube_id":"","source_video_title":"","visited_date":"2024-02-24","members":["木村拓哉"],"groups":["kimura"],"group":"kimura","nearest_station":"京都市役所前駅 徒歩2分","tags":[],"thumbnail_url":"https://tblg.k-img.com/resize/640x640c/restaurant/images/Rvw/337669/8814b93d67e4132cc26818df8b258fbd.jpg?token=40a3c51&api=v2","source_type":"","tabelog_score":3.57,"price_range":"￥10,000～￥14,999"},{"id":"kimura-1ec0b360-20240210","name":"焼肉酒家 傳々","genre":"食事","prefecture":"東京都","city":"江東区","lat":35.6734,"lng":139.7851,"youtube_id":"","source_video_title":"","visited_date":"2024-02-10","members":["木村拓哉"],"groups":["kimura"],"group":"kimura","nearest_station":"八丁堀駅 徒歩11分","tags":[],"thumbnail_url":"https://tblg.k-img.com/resize/640x640c/restaurant/images/Rvw/21747/21747932.jpg?token=c3720b4&api=v2","source_type":"","tabelog_score":3.46,"price_range":"￥6,000～￥7,999"}]