[{"id":"kismai-san_francisco_peaks-","name":"San Francisco Peaks（サン フランシスコ ピークス）","genre":"cafe","prefecture":"東京都","city":"渋谷区","lat":35.67197436481817,"lng":139.7091961523204,"youtube_id":"","source_video_title":"河合郁人×藤ヶ谷太輔のハンバーガーショップカフェはどこ？食べたメニューは何？","visited_date":"","members":["玉森裕太","藤ヶ谷太輔","二階堂高嗣","宮田俊哉","北山宏光","千賀健永","横尾渉"],"groups":["kismai"],"group":"kismai","nearest_station":"明治神宮前〈原宿〉駅 徒歩9分","tags":[],"thumbnail_url":"https://tblg.k-img.com/resize/640x640c/restaurant/images/Rvw/201831/37c29375e4f86110549ad58895ac620c.jpg?token=cf01009&api=v2","source_type":"","tabelog_score":3.49,"price_range":"￥3,000～￥3,999"},{"id":"kismai-bf42a39b-","name":"二代目蝦夷","genre":"shokuji","prefecture":"埼玉県","city":"川越市","lat":35.937843448448135,"lng":139.43702846720734,"youtube_id":"","source_video_title":"気になるマン【藤ヶ谷太輔】中華料理店はどこ？川越のデカ盛り町中華「二代目蝦夷」","visited_date":"","members":["玉森裕太","藤ヶ谷太輔","二階堂高嗣","宮田俊哉","北山宏光","千賀健永","横尾渉"],"groups":["kismai"],"group":"kismai","nearest_station":"","tags":[],"thumbnail_url":"https://tblg.k-img.com/resize/640x640c/restaurant/images/Rvw/359969/4e0fcc1b09fdcdddf2d6883e62faef10.jpg?token=25e0657&api=v2","source_type":"","tabelog_score":3.5,"price_range":"￥1,000～￥1,999"},{"id":"kismai-2f1d5b20-","name":"会楽園","genre":"shokuji","prefecture":"熊本県","city":"熊本市","lat":32.7997953,"lng":130.6970986,"youtube_id":"","source_video_title":"GO!GO!!キスマイクマモトオオイタ タイピーエン","visited_date":"","members":[],"groups":["kismai"],"group":"kismai","nearest_station":"新町駅 徒歩1分","tags":[],"thumbnail_url":"","source_type":""},{"id":"kismai-4128bf30-","name":"村上カラシレンコン店","genre":"shokuji","prefecture":"熊本県","city":"熊本市","lat":32.7997953,"lng":130.6970986,"youtube_id":"","source_video_title":"GO!GO!!キスマイクマモトオオイタ からしれんこん","visited_date":"","members":[],"groups":["kismai"],"group":"kismai","nearest_station":"新町駅 徒歩1分","tags":[],"thumbnail_url":"","source_type":""},{"id":"kismai-390d86fc-","name":"馬料理 天國本店","genre":"shokuji","prefecture":"熊本県","city":"熊本市","lat":32.8016,"lng":130.6889,"youtube_id":"","source_video_title":"GO!GO!!キスマイクマモトオオイタ 馬刺し","visited_date":"","members":[],"groups":["kismai"],"group":"kismai","nearest_station":"蔚山町（護国神社前）駅 徒歩13分","tags":[],"thumbnail_url":"","source_type":""},{"id":"kismai-ec49ab90-","name":"こもれび工房","genre":"cafe","prefecture":"大分県","city":"日田市","lat":33.3279825,"lng":130.9372547,"youtube_id":"","source_video_title":"GO!GO!!キスマイクマモトオオイタ 日田豆田町","visited_date":"","members":[],"groups":["kismai"],"group":"kismai","nearest_station":"","tags":[],"thumbnail_url":"","source_type":""},{"id":"kismai-2d64495e-","name":"東光堂","genre":"cafe","prefecture":"大分県","city":"日田市","lat":33.3279825,"lng":130.9372547,"youtube_id":"","source_video_title":"GO!GO!!キスマイクマモトオオイタ 日田豆田町","visited_date":"","members":[],"groups":["kismai"],"group":"kismai","nearest_station":"","tags":[],"thumbnail_url":"","source_type":""},{"id":"kismai-c1d8d497-","name":"麦屋カフェ","genre":"cafe","prefecture":"大分県","city":"日田市","lat":33.3279825,"lng":130.9372547,"youtube_id":"","source_video_title":"GO!GO!!キスマイクマモトオオイタ 日田豆田町","visited_date":"","members":[],"groups":["kismai"],"group":"kismai","nearest_station":"","tags":[],"thumbnail_url":"","source_type":""},{"id":"kismai-38687c6d-","name":"いさりび食堂","genre":"shokuji","prefecture":"千葉県","city":"","lat":35.535,"lng":140.44,"youtube_id":"","source_video_title":"藤ヶ谷太輔 インスタグラム 九十九里 浜焼き","visited_date":"","members":["藤ヶ谷太輔"],"groups":["kismai"],"group":"kismai","nearest_station":"","tags":[],"thumbnail_url":"https://tblg.k-img.com/resize/640x640c/restaurant/images/Rvw/360681/d4a3290b1cf0d95d651c735043b514a3.jpg?token=5df0a80&api=v2","source_type":"","tabelog_score":3.57,"price_range":"￥3,000～￥3,999"},{"id":"kismai-ordinary_cafe-","name":"Ordinary Cafe","genre":"cafe","prefecture":"東京都","city":"渋谷区","lat":35.6692039,"lng":139.7072847,"youtube_id":"","source_video_title":"玉森裕太 インスタグラム ドバイチョコもち 原宿","visited_date":"","members":["玉森裕太"],"groups":["kismai"],"group":"kismai","nearest_station":"","tags":[],"thumbnail_url":"","source_type":""},{"id":"5c98eca5","name":"元祖久留米らーめん 福ヤ","genre":"ラーメン","prefecture":"東京都","city":"港区","lat":35.65466073791824,"lng":139.73725098297473,"youtube_id":"","source_video_title":"Kis-My-Ft2 メンバー訪問店","visited_date":"","members":["宮田俊哉","横尾渉","北山宏光"],"groups":["kismai"],"group":"kismai","nearest_station":"麻布十番","tags":["ラーメン","久留米","麻布十番","東京"],"thumbnail_url":"https://tblg.k-img.com/resize/640x640c/restaurant/images/Rvw/16057/16057293.jpg?token=5cff390&api=v2","source_type":"blog","tabelog_score":3.45,"price_range":"～￥999"},{"id":"9f2ea65a","name":"お好み焼き カチャカチャDO 平田店","genre":"食事","prefecture":"島根県","city":"出雲市","lat":35.4598042,"lng":132.8639419,"youtube_id":"","source_video_title":"帰れマンデー見っけ隊!! 島根出雲（藤ヶ谷太輔）","visited_date":"","members":["藤ヶ谷太輔"],"groups":["kismai"],"group":"kismai","nearest_station":"雲州平田","tags":["お好み焼き","島根","出雲"],"thumbnail_url":"","source_type":"tv"},{"id":"ed3ca800","name":"博多もつ鍋 二十四 博多南店","genre":"居酒屋","prefecture":"福岡県","city":"博多区","lat":33.586668636265344,"lng":130.4229242686152,"youtube_id":"","source_video_title":"Kis-My-Ft2 千賀健永 訪問店","visited_date":"","members":["千賀健永"],"groups":["kismai"],"group":"kismai","nearest_station":"博多","tags":["もつ鍋","福岡","博多"],"thumbnail_url":"https://tblg.k-img.com/resize/640x640c/restaurant/images/Rvw/51673/51673828.jpg?token=e792504&api=v2","source_type":"blog","tabelog_score":3.08,"price_range":"￥3,000～￥3,999"},{"id":"df6209b5","name":"中華大新 鎌倉店","genre":"chuka","prefecture":"神奈川県","city":"鎌倉市","lat":35.31702308887875,"lng":139.55105266085656,"source_video_title":"10万円でできるかな（玉森裕太）","visited_date":"2024-01-01","members":["玉森裕太"],"groups":["kismai"],"group":"kismai","source_type":"tv","thumbnail_url":"https://tblg.k-img.com/resize/640x640c/restaurant/images/Rvw/360796/7ab0b0d1902cb0a5eaea54ec05eafcf5.jpg?token=85a61eb&api=v2","tabelog_score":3.48,"price_range":"￥1,000～￥1,999","nearest_station":"鎌倉駅 徒歩3分"}]