[{"id":"kpop_enhypen-616827d4-","name":"鉄板焼き やすむら","genre":"others","prefecture":"東京都","city":"目黒区","lat":35.6309458,"lng":139.7115442,"youtube_id":"","source_video_title":"ENHYPEN","visited_date":"","members":["ジェイ"],"groups":["kpop_enhypen"],"group":"kpop_enhypen","nearest_station":"目黒駅 徒歩7分","tags":[],"thumbnail_url":"https://tblg.k-img.com/resize/640x640c/restaurant/images/Rvw/95756/95756680.jpg?token=50b8daa&api=v2","source_type":"","tabelog_score":3.26,"price_range":"￥10,000～￥14,999"},{"id":"kpop_enhypen-8255968b-","name":"新大久保 トシオブ韓国料理屋韓国刺身専門店","genre":"others","prefecture":"東京都","city":"新宿区","lat":35.7026693,"lng":139.7061959,"youtube_id":"","source_video_title":"ENHYPEN","visited_date":"","members":[],"groups":["kpop_enhypen"],"group":"kpop_enhypen","nearest_station":"東新宿駅 徒歩7分","tags":[],"thumbnail_url":"","source_type":""},{"id":"kpop_enhypen-849120b7-","name":"釜元たん米衛恵比寿店","genre":"others","prefecture":"東京都","city":"渋谷区","lat":35.645115,"lng":139.7097981,"youtube_id":"","source_video_title":"ENHYPEN","visited_date":"","members":[],"groups":["kpop_enhypen"],"group":"kpop_enhypen","nearest_station":"恵比寿駅 徒歩2分","tags":[],"thumbnail_url":"https://tblg.k-img.com/resize/640x640c/restaurant/images/Rvw/156512/156512390.jpg?token=9b67709&api=v2","source_type":"","tabelog_score":3.49,"price_range":"￥2,000～￥2,999"},{"id":"kpop_enhypen-255c5e9a-","name":"おにやんま 新橋店","genre":"others","prefecture":"東京都","city":"港区","lat":35.6655555,"lng":139.7563666,"youtube_id":"","source_video_title":"ENHYPEN","visited_date":"","members":["ソンジェク"],"groups":["kpop_enhypen"],"group":"kpop_enhypen","nearest_station":"新橋駅 徒歩3分","tags":[],"thumbnail_url":"https://tblg.k-img.com/resize/640x640c/restaurant/images/Rvw/99624/99624654.jpg?token=c252509&api=v2","source_type":"","tabelog_score":3.71,"price_range":"～￥999"},{"id":"kpop_enhypen-62a25897-","name":"かしわ 渋谷ヒカリエ店","genre":"others","prefecture":"東京都","city":"渋谷区","lat":35.6596837,"lng":139.706267,"youtube_id":"","source_video_title":"ENHYPEN","visited_date":"","members":[],"groups":["kpop_enhypen"],"group":"kpop_enhypen","nearest_station":"渋谷駅 徒歩5分","tags":[],"thumbnail_url":"https://tblg.k-img.com/resize/640x640c/restaurant/images/Rvw/196053/ab8603f3daf2ef809d3817302f93146e.jpg?token=82f750b&api=v2","source_type":"","tabelog_score":3.36,"price_range":"￥4,000～￥4,999"},{"id":"kpop_enhypen-399875a6-","name":"焼肉 零條","genre":"others","prefecture":"東京都","city":"港区","lat":35.6705999,"lng":139.7159289,"youtube_id":"","source_video_title":"ENHYPEN","visited_date":"","members":["ソヌ"],"groups":["kpop_enhypen"],"group":"kpop_enhypen","nearest_station":"外苑前駅 徒歩3分","tags":[],"thumbnail_url":"https://tblg.k-img.com/resize/640x640c/restaurant/images/Rvw/218178/28b3ef99656af49df1c08636dc645b0e.jpg?token=a45becd&api=v2","source_type":"","tabelog_score":3.2,"price_range":"￥8,000～￥9,999"},{"id":"kpop_enhypen-kosari_tokyo-","name":"KOSARI TOKYO 東麻布店","genre":"others","prefecture":"東京都","city":"港区","lat":35.6567525,"lng":139.741306,"youtube_id":"","source_video_title":"ENHYPEN","visited_date":"","members":[],"groups":["kpop_enhypen"],"group":"kpop_enhypen","nearest_station":"赤羽橋駅 徒歩5分","tags":[],"thumbnail_url":"https://tblg.k-img.com/resize/640x640c/restaurant/images/Rvw/252404/46810b96decc30ccca4fac32d02606f3.jpg?token=1435663&api=v2","source_type":"","tabelog_score":3.27,"price_range":"￥8,000～￥9,999"},{"id":"kpop_enhypen-oimo_tokyo_cafe-","name":"& OIMO TOKYO CAFE 中目黒店","genre":"others","prefecture":"東京都","city":"目黒区","lat":35.6482209,"lng":139.6970724,"youtube_id":"","source_video_title":"ENHYPEN","visited_date":"","members":[],"groups":["kpop_enhypen"],"group":"kpop_enhypen","nearest_station":"中目黒駅 徒歩8分","tags":[],"thumbnail_url":"https://tblg.k-img.com/resize/640x640c/restaurant/images/Rvw/360936/cc56331fa64a1a5c0eb8c0d78f68c1e2.jpg?token=4f8c098&api=v2","source_type":"","tabelog_score":3.49,"price_range":"￥2,000～￥2,999"},{"id":"kpop_enhypen-b21f31cf-","name":"鳴門鯛焼本舗 新橋駅前店","genre":"others","prefecture":"東京都","city":"港区","lat":35.6668663,"lng":139.7574154,"youtube_id":"","source_video_title":"ENHYPEN","visited_date":"","members":["ソンジェク"],"groups":["kpop_enhypen"],"group":"kpop_enhypen","nearest_station":"新橋駅 徒歩2分","tags":[],"thumbnail_url":"https://tblg.k-img.com/resize/640x640c/restaurant/images/Rvw/337882/3e2238fa17cf423b9989a8468379fb1c.jpg?token=f245a90&api=v2","source_type":"","tabelog_score":3.09,"price_range":"～￥999"}]