[{"id":"kpop_seventeen-b8c83d89-","name":"一風堂 梅田店","genre":"others","prefecture":"大阪府","city":"大阪市","lat":34.7037444,"lng":135.4993314,"youtube_id":"","source_video_title":"SEVENTEEN","visited_date":"","members":["ウジ"],"groups":["kpop_seventeen"],"group":"kpop_seventeen","nearest_station":"梅田駅 徒歩3分","tags":[],"thumbnail_url":"https://tblg.k-img.com/resize/640x640c/restaurant/images/Rvw/315451/71550e5f6fa87219501fb10fa06f8a1f.jpg?token=cc0e469&api=v2","source_type":"","tabelog_score":3.22,"price_range":"￥1,000～￥1,999"},{"id":"kpop_seventeen-bar_1515-","name":"BAR 酒店 1515","genre":"others","prefecture":"大阪府","city":"大阪市","lat":34.6676075,"lng":135.5044633,"youtube_id":"","source_video_title":"SEVENTEEN","visited_date":"","members":["ミンギュ"],"groups":["kpop_seventeen"],"group":"kpop_seventeen","nearest_station":"近鉄日本橋駅 徒歩2分","tags":[],"thumbnail_url":"","source_type":""},{"id":"kpop_seventeen-ohana-","name":"串揚げとワインOhana 北新地店","genre":"others","prefecture":"大阪府","city":"大阪市","lat":34.6973144,"lng":135.4987412,"youtube_id":"","source_video_title":"SEVENTEEN","visited_date":"","members":["ホシ"],"groups":["kpop_seventeen"],"group":"kpop_seventeen","nearest_station":"北新地駅 徒歩3分","tags":[],"thumbnail_url":"https://tblg.k-img.com/resize/640x640c/restaurant/images/Rvw/126328/126328775.jpg?token=c70d0c6&api=v2","source_type":"","tabelog_score":3.32,"price_range":"￥6,000～￥7,999"},{"id":"kpop_seventeen-081d7855-","name":"焼肉 吉田 新館","genre":"others","prefecture":"大阪府","city":"大阪市","lat":34.666526,"lng":135.5217554,"youtube_id":"","source_video_title":"SEVENTEEN","visited_date":"","members":["メンバー"],"groups":["kpop_seventeen"],"group":"kpop_seventeen","nearest_station":"大阪上本町駅 徒歩3分","tags":[],"thumbnail_url":"https://tblg.k-img.com/resize/640x640c/restaurant/images/Rvw/125611/125611686.jpg?token=6eeb50b&api=v2","source_type":"","tabelog_score":3.55,"price_range":"￥8,000～￥9,999"},{"id":"kpop_seventeen-cafebar_8-","name":"Cafebar.8","genre":"others","prefecture":"大阪府","city":"大阪市","lat":34.7030541,"lng":135.5209944,"youtube_id":"","source_video_title":"SEVENTEEN","visited_date":"","members":["スングァン"],"groups":["kpop_seventeen"],"group":"kpop_seventeen","nearest_station":"桜ノ宮駅 徒歩3分","tags":[],"thumbnail_url":"https://tblg.k-img.com/resize/640x640c/restaurant/images/Rvw/232335/3d5e256257fe372d1d7c7a2e38788c9e.jpg?token=188e581&api=v2","source_type":"","tabelog_score":3.04,"price_range":"～￥999"},{"id":"kpop_seventeen-1554437c-","name":"ジャンボ釣船 つり吉 大阪新世界店","genre":"others","prefecture":"大阪府","city":"大阪市","lat":34.6517376,"lng":135.5061633,"youtube_id":"","source_video_title":"SEVENTEEN","visited_date":"","members":["ジョンハン"],"groups":["kpop_seventeen"],"group":"kpop_seventeen","nearest_station":"恵美須町駅 徒歩4分","tags":[],"thumbnail_url":"","source_type":""},{"id":"kpop_seventeen-be6b4ba0-","name":"天麩羅 えびのや 南森町","genre":"others","prefecture":"大阪府","city":"大阪市","lat":34.6964893,"lng":135.5123904,"youtube_id":"","source_video_title":"SEVENTEEN","visited_date":"","members":["スングァン"],"groups":["kpop_seventeen"],"group":"kpop_seventeen","nearest_station":"大阪天満宮駅 徒歩2分","tags":[],"thumbnail_url":"https://tblg.k-img.com/resize/640x640c/restaurant/images/Rvw/314284/99be96bbd4448ee06be0ec89eeebc067.jpg?token=384ab7a&api=v2","source_type":"","tabelog_score":3.4,"price_range":"￥1,000～￥1,999"}]