[{"id":"naniwa-muun_seoul-20201023","name":"MUUN seoul","genre":"カフェ","prefecture":"東京都","city":"渋谷区","lat":35.6692039,"lng":139.7072847,"youtube_id":"","source_video_title":"","visited_date":"2020-10-23","members":["長尾謙杜"],"groups":["naniwa"],"group":"naniwa","nearest_station":"明治神宮前〈原宿〉駅 徒歩3分","tags":[],"thumbnail_url":"https://image.tmdb.org/t/p/w500/6ELW5sORfrRSw8EiS595nnRiJUq.jpg","tabelog_score":3.38,"price_range":"￥2,000～￥2,999"},{"id":"naniwa-trufflebakery-20211001","name":"TruffleBAKERY","genre":"カフェ","prefecture":"東京都","city":"江東区","lat":35.6722765,"lng":139.7950555,"youtube_id":"","source_video_title":"","visited_date":"2021-10-01","members":["大橋和也"],"groups":["naniwa"],"group":"naniwa","nearest_station":"門前仲町駅 徒歩1分","tags":[],"thumbnail_url":"https://image.tmdb.org/t/p/w500/6ELW5sORfrRSw8EiS595nnRiJUq.jpg","tabelog_score":3.5,"price_range":"￥1,000～￥1,999"},{"id":"naniwa-le_bresso-202110","name":"Le BRESSO 木場公園前店","genre":"カフェ","prefecture":"東京都","city":"江東区","lat":35.6777246,"lng":139.8043094,"youtube_id":"","source_video_title":"","visited_date":"2021-10-01","members":["大橋和也"],"groups":["naniwa"],"group":"naniwa","nearest_station":"清澄白河駅 徒歩11分","tags":[],"thumbnail_url":"https://image.tmdb.org/t/p/w500/6ELW5sORfrRSw8EiS595nnRiJUq.jpg"},{"id":"naniwa-b723a30f-202107","name":"そうめん そそそ 研究室","genre":"ラーメン","prefecture":"東京都","city":"渋谷区","lat":35.6585428,"lng":139.7015098,"youtube_id":"","source_video_title":"","visited_date":"2021-07-09","members":["高橋恭平"],"groups":["naniwa"],"group":"naniwa","nearest_station":"渋谷駅 徒歩1分","tags":[],"thumbnail_url":"https://image.tmdb.org/t/p/w500/6ELW5sORfrRSw8EiS595nnRiJUq.jpg","tabelog_score":3.44,"price_range":"￥1,000～￥1,999"},{"id":"naniwa-883c81e1-202204","name":"大衆食堂スタンド そのだ","genre":"居酒屋","prefecture":"東京都","city":"品川区","lat":35.6278435,"lng":139.7267818,"youtube_id":"","source_video_title":"","visited_date":"2022-04-15","members":["藤原丈一郎"],"groups":["naniwa"],"group":"naniwa","nearest_station":"五反田駅 徒歩4分","tags":[],"thumbnail_url":"https://image.tmdb.org/t/p/w500/6ELW5sORfrRSw8EiS595nnRiJUq.jpg","tabelog_score":3.49,"price_range":"￥2,000～￥2,999"},{"id":"naniwa-doowop-20211126","name":"DooWop","genre":"居酒屋","prefecture":"東京都","city":"渋谷区","lat":35.6483517,"lng":139.7065258,"youtube_id":"Xilutm7jG0Y","source_video_title":"なにわ男子【デビュー日完全密着〜1/2〜】裏側全部見せます！","visited_date":"2021-11-26","members":["長尾謙杜"],"groups":["naniwa"],"group":"naniwa","nearest_station":"恵比寿駅 徒歩4分","tags":[],"thumbnail_url":"https://img.youtube.com/vi/Xilutm7jG0Y/hqdefault.jpg","tabelog_score":3.24,"price_range":"￥1,000～￥1,999"},{"id":"naniwa-coco-202412","name":"CoCo壱番屋 中目黒山手通店","genre":"カレー","prefecture":"東京都","city":"目黒区","lat":35.6441592,"lng":139.6950848,"youtube_id":"wvv-EUPN6_8","source_video_title":"なにわ男子【ココイチで被っちゃダメよカレー】絶対に食べなきゃいけない戦いがそこにはある","visited_date":"2024-12-03","members":[],"groups":["naniwa"],"group":"naniwa","nearest_station":"中目黒駅 徒歩6分","tags":[],"thumbnail_url":"https://img.youtube.com/vi/wvv-EUPN6_8/hqdefault.jpg","tabelog_score":3.06,"price_range":"￥1,000～￥1,999"},{"id":"naniwa-d5f14d00-202411","name":"駿河の味処 富士屋","genre":"食事","prefecture":"静岡県","city":"静岡市","lat":34.979238,"lng":138.490208,"youtube_id":"bf6HUKQE23c","source_video_title":"なにわ男子【2024夏の静岡旅~10~】ラストはうなぎ料理で少数派グルメ","visited_date":"2024-11-26","members":[],"groups":["naniwa"],"group":"naniwa","nearest_station":"","tags":[],"thumbnail_url":"https://img.youtube.com/vi/bf6HUKQE23c/hqdefault.jpg","tabelog_score":3.08,"price_range":"-"},{"id":"naniwa-2c2e760f-202410","name":"もんじゃと酒膳 かりん","genre":"居酒屋","prefecture":"東京都","city":"千代田区","lat":35.687493,"lng":139.733399,"youtube_id":"3_HZZwKYEw4","source_video_title":"なにわ男子【大西流星が大倉くんとのんちゃんと打ち上げ】遅刻しちゃった〜💦","visited_date":"2024-10-04","members":[],"groups":["naniwa"],"group":"naniwa","nearest_station":"四ツ谷駅 徒歩5分","tags":[],"thumbnail_url":"https://img.youtube.com/vi/3_HZZwKYEw4/hqdefault.jpg","tabelog_score":3.25,"price_range":"￥4,000～￥4,999"},{"id":"naniwa-a47465ac-202410","name":"石松餃子 本店","genre":"中華","prefecture":"静岡県","city":"浜松市","lat":34.8085792,"lng":137.7651286,"youtube_id":"NtqgUCZdgwA","source_video_title":"なにわ男子【2024夏の静岡旅~02~】浜松餃子はサイコーなんだけど…🥟","visited_date":"2024-10-01","members":[],"groups":["naniwa"],"group":"naniwa","nearest_station":"","tags":[],"thumbnail_url":"https://img.youtube.com/vi/NtqgUCZdgwA/hqdefault.jpg","tabelog_score":3.45,"price_range":"-"},{"id":"naniwa-0b2eb986-20240125","name":"はま寿司 環八大鳥居店","genre":"寿司","prefecture":"東京都","city":"大田区","lat":35.5511001,"lng":139.7317797,"youtube_id":"","source_video_title":"なにわ男子のなんでやねん","visited_date":"2024-01-25","members":[],"groups":["naniwa"],"group":"naniwa","nearest_station":"糀谷駅 徒歩7分","tags":[],"source_type":"tv","thumbnail_url":"https://tblg.k-img.com/resize/640x640c/restaurant/images/Rvw/356700/1c6575b98d0a0937bac928a3240e19dc.jpg?token=a808791&api=v2","tabelog_score":3.07,"price_range":"￥2,000～￥2,999"},{"id":"naniwa-f5c2bfbf-20201016","name":"挽肉と米　吉祥寺店","genre":"居酒屋","prefecture":"東京都","city":"武蔵野市","lat":35.7043267,"lng":139.5775409,"youtube_id":"","source_video_title":"ハンバーグにハマる女子急増のなんでやねん！を解明","visited_date":"2020-10-16","members":["藤原丈一郎"],"groups":["naniwa"],"group":"naniwa","nearest_station":"吉祥寺駅 徒歩5分","tags":[],"source_type":"tv","thumbnail_url":"https://tblg.k-img.com/resize/640x640c/restaurant/images/Rvw/131943/131943917.jpg?token=9f84997&api=v2","tabelog_score":3.67,"price_range":"￥1,000～￥1,999"},{"id":"naniwa-637d6485-20201016","name":"鉄板和食とワイン 萬鉄","genre":"居酒屋","prefecture":"東京都","city":"港区","lat":35.6631257,"lng":139.7589757,"youtube_id":"","source_video_title":"ハンバーグにハマる女子急増のなんでやねん！を解明","visited_date":"2020-10-16","members":["藤原丈一郎"],"groups":["naniwa"],"group":"naniwa","nearest_station":"汐留駅 徒歩2分","tags":[],"source_type":"tv","thumbnail_url":"https://tblg.k-img.com/resize/640x640c/restaurant/images/Rvw/132508/132508076.jpg?token=6878008&api=v2","tabelog_score":3.49,"price_range":"￥8,000～￥9,999"},{"id":"naniwa-d13107cb-20220415","name":"大衆食堂 ゆしまホール","genre":"食事","prefecture":"東京都","city":"文京区","lat":35.7073938,"lng":139.7678135,"youtube_id":"","source_video_title":"大衆食堂が若者に人気なのなんでやねん！を解明","visited_date":"2022-04-15","members":["藤原丈一郎"],"groups":["naniwa"],"group":"naniwa","nearest_station":"東京メトロ千代田線 湯島駅下車 徒歩1分東京メトロ・都営地下鉄 上野広小路駅下車 徒歩7分JR 上野駅/御徒町駅 徒歩12分","tags":[],"source_type":"tv","thumbnail_url":"https://tblg.k-img.com/resize/640x640c/restaurant/images/Rvw/291349/79b5948258fb79254bf7ec669754b6d7.jpg?token=573b660&api=v2","tabelog_score":3.47,"price_range":"￥3,000～￥3,999"},{"id":"naniwa-a9a20a89-20220520","name":"東京ギョーザ スタンド ウーロン","genre":"中華","prefecture":"東京都","city":"千代田区","lat":35.6790703,"lng":139.7652988,"youtube_id":"","source_video_title":"駅ナカに話題のグルメが集まっているのなんでやねん！を解明","visited_date":"2022-05-20","members":["藤原丈一郎"],"groups":["naniwa"],"group":"naniwa","nearest_station":"東京駅 徒歩3分","tags":[],"source_type":"tv","thumbnail_url":"https://tblg.k-img.com/resize/640x640c/restaurant/images/Rvw/274698/2f30d6dd59c5b97e5c07fad851e1f575.jpg?token=94dd441&api=v2","tabelog_score":3.49,"price_range":"￥2,000～￥2,999"},{"id":"naniwa-795165bd-20220520","name":"鳥藤　とりそばスタンド","genre":"ラーメン","prefecture":"東京都","city":"千代田区","lat":35.6790703,"lng":139.7652988,"youtube_id":"","source_video_title":"駅ナカに話題のグルメが集まっているのなんでやねん！を解明","visited_date":"2022-05-20","members":["藤原丈一郎"],"groups":["naniwa"],"group":"naniwa","nearest_station":"東京駅 徒歩3分","tags":[],"source_type":"tv","thumbnail_url":"https://tblg.k-img.com/resize/640x640c/restaurant/images/Rvw/110572/110572703.jpg?token=453eaca&api=v2","tabelog_score":3.47,"price_range":"-"},{"id":"naniwa-9e2c851d-20220701","name":"立ち寿司横丁","genre":"寿司","prefecture":"東京都","city":"新宿区","lat":35.690719,"lng":139.6941527,"youtube_id":"","source_video_title":"立ち食い寿司店が増えているのなんでやねん！を解明","visited_date":"2022-07-01","members":["藤原丈一郎"],"groups":["naniwa"],"group":"naniwa","nearest_station":"●JR各線新宿駅西口徒歩５分●小田急線・京王線新宿駅西口徒歩５分●都営大江戸線新宿駅 徒歩３分","tags":[],"source_type":"tv","thumbnail_url":"https://tblg.k-img.com/resize/640x640c/restaurant/images/Rvw/346775/567e766c99cf14242c2342a8c8aeb724.jpg?token=a9d1166&api=v2","tabelog_score":3.44,"price_range":"￥1,000～￥1,999"},{"id":"naniwa-56665469-20211217","name":"むぎとオリーブ","genre":"ラーメン","prefecture":"東京都","city":"中央区","lat":35.6720135,"lng":139.7647202,"youtube_id":"","source_video_title":"銀座におしゃれ系ラーメン店が増えているのなんでやねん！を解明","visited_date":"2021-12-17","members":["高橋恭平"],"groups":["naniwa"],"group":"naniwa","nearest_station":"銀座駅 徒歩1分","tags":[],"source_type":"tv","thumbnail_url":"https://tblg.k-img.com/resize/640x640c/restaurant/images/Rvw/161030/161030939.jpg?token=2352485&api=v2","tabelog_score":3.76,"price_range":"￥1,000～￥1,999"},{"id":"naniwa-987ebf82-20211217","name":"ウミノイロ","genre":"食事","prefecture":"東京都","city":"中央区","lat":35.6720135,"lng":139.7647202,"youtube_id":"","source_video_title":"銀座におしゃれ系ラーメン店が増えているのなんでやねん！を解明","visited_date":"2021-12-17","members":["高橋恭平"],"groups":["naniwa"],"group":"naniwa","nearest_station":"銀座駅 徒歩1分","tags":[],"source_type":"tv","thumbnail_url":"https://tblg.k-img.com/resize/640x640c/restaurant/images/Rvw/163664/a13268375a31d0e621220e05c86f571d.jpg?token=788e915&api=v2","tabelog_score":3.01,"price_range":"～￥999"},{"id":"naniwa-06702518-20211217","name":"銀座 創龍","genre":"食事","prefecture":"東京都","city":"中央区","lat":35.6720135,"lng":139.7647202,"youtube_id":"","source_video_title":"銀座におしゃれ系ラーメン店が増えているのなんでやねん！を解明","visited_date":"2021-12-17","members":["高橋恭平"],"groups":["naniwa"],"group":"naniwa","nearest_station":"■駅からのアクセス東京メトロ銀座線 ／ 銀座駅C2出口 徒歩2分（110m）JR山手線 ／ 有楽町駅 徒歩3分","tags":[],"source_type":"tv","thumbnail_url":"https://tblg.k-img.com/resize/640x640c/restaurant/images/Rvw/231514/1430491a44066dcebb30b0fe930a2c18.jpg?token=91280b7&api=v2","tabelog_score":3.58,"price_range":"￥1,000～￥1,999"},{"id":"naniwa-kamera-20220422","name":"KAMERA","genre":"中華","prefecture":"東京都","city":"渋谷区","lat":35.6593786,"lng":139.6987796,"youtube_id":"","source_video_title":" シューマイの存在感が増しているのなんでやねん！を解明","visited_date":"2022-04-22","members":["高橋恭平"],"groups":["naniwa"],"group":"naniwa","nearest_station":"渋谷駅 徒歩2分","tags":[],"source_type":"tv","thumbnail_url":"https://tblg.k-img.com/resize/640x640c/restaurant/images/Rvw/349378/cce227f4483938ccf7e7a6b759f30f49.jpg?token=66460db&api=v2","tabelog_score":3.41,"price_range":"￥4,000～￥4,999"},{"id":"naniwa-ecf1fc97-20220708","name":"食と祭りの殿堂 浅草横丁","genre":"居酒屋","prefecture":"東京都","city":"台東区","lat":35.7175966,"lng":139.7975626,"youtube_id":"","source_video_title":"エンタメレストランが増えているのなんでやねん！を解明","visited_date":"2022-07-08","members":["高橋恭平"],"groups":["naniwa"],"group":"naniwa","nearest_station":"本堂駅 徒歩8分","tags":[],"source_type":"tv"},{"id":"naniwa-nautilus-20220708","name":"アクアリウムレストラン Nautilus","genre":"海鮮","prefecture":"東京都","city":"台東区","lat":35.7118219,"lng":139.7776069,"youtube_id":"","source_video_title":"エンタメレストランが増えているのなんでやねん！を解明","visited_date":"2022-07-08","members":["高橋恭平"],"groups":["naniwa"],"group":"naniwa","nearest_station":"JR各線 上野駅 徒歩3分","tags":[],"source_type":"tv","thumbnail_url":"https://tblg.k-img.com/resize/640x640c/restaurant/images/Rvw/168533/7bee0381c3ea01211a2d965cf0781eaa.jpg?token=f586077&api=v2","tabelog_score":3.37,"price_range":"￥4,000～￥4,999"},{"id":"naniwa-269b1b4d-20220708","name":"回転わんこそば・くるくるわんこ","genre":"ラーメン","prefecture":"東京都","city":"新宿区","lat":35.6945429,"lng":139.7027105,"youtube_id":"","source_video_title":"エンタメレストランが増えているのなんでやねん！を解明","visited_date":"2022-07-08","members":["高橋恭平"],"groups":["naniwa"],"group":"naniwa","nearest_station":"西武新宿駅 徒歩4分","tags":[],"source_type":"tv","thumbnail_url":"https://tblg.k-img.com/resize/640x640c/restaurant/images/Rvw/317414/5c836e0cdfa393fef93decd6beb65700.jpg?token=dedc953&api=v2","tabelog_score":3.16,"price_range":"￥3,000～￥3,999"},{"id":"naniwa-pst-20210820","name":"PST　六本木店","genre":"カフェ","prefecture":"東京都","city":"港区","lat":35.6624568,"lng":139.7334981,"youtube_id":"","source_video_title":"熱々グルメがひんやりグルメになっているのなんでやねん！を解明","visited_date":"2021-08-20","members":["西畑大吾"],"groups":["naniwa"],"group":"naniwa","nearest_station":"六本木駅 徒歩3分","tags":[],"source_type":"tv","thumbnail_url":"https://tblg.k-img.com/resize/640x640c/restaurant/images/Rvw/102560/102560696.jpg?token=b01d28a&api=v2","tabelog_score":3.67,"price_range":"￥6,000～￥7,999"},{"id":"naniwa-4cfc66d4-20211119","name":"沸騰 小吃城","genre":"中華","prefecture":"東京都","city":"豊島区","lat":35.7284313,"lng":139.7017131,"youtube_id":"","source_video_title":"池袋が中華街になっているのなんでやねん！を解明","visited_date":"2021-11-19","members":["西畑大吾"],"groups":["naniwa"],"group":"naniwa","nearest_station":"要町駅 徒歩10分","tags":[],"source_type":"tv","thumbnail_url":"https://tblg.k-img.com/resize/640x640c/restaurant/images/Rvw/333483/92869baf039ec3086f65fc5d1d2da3ef.jpg?token=256632f&api=v2","tabelog_score":3.47,"price_range":"￥4,000～￥4,999"},{"id":"naniwa-9b0684c4-20211119","name":"四季香","genre":"食事","prefecture":"東京都","city":"豊島区","lat":35.7284313,"lng":139.7017131,"youtube_id":"","source_video_title":"池袋が中華街になっているのなんでやねん！を解明","visited_date":"2021-11-19","members":["西畑大吾"],"groups":["naniwa"],"group":"naniwa","nearest_station":"要町駅 徒歩10分","tags":[],"source_type":"tv","thumbnail_url":"https://tblg.k-img.com/resize/640x640c/restaurant/images/Rvw/142335/142335698.jpg?token=1cbd542&api=v2","tabelog_score":3.38,"price_range":"￥4,000～￥4,999"},{"id":"naniwa-meat_it-20211029","name":"焼肉Meat it","genre":"焼肉","prefecture":"東京都","city":"町田市","lat":35.5413685,"lng":139.4520661,"youtube_id":"","source_video_title":"新しいタイプの焼き肉店が拡大しているのなんでやねん！を解明","visited_date":"2021-10-29","members":["大西流星"],"groups":["naniwa"],"group":"naniwa","nearest_station":"JR横浜線 町田駅 徒歩5分","tags":[],"source_type":"tv","thumbnail_url":"https://tblg.k-img.com/resize/640x640c/restaurant/images/Rvw/188554/313376f54d4ad8c6916eab72b26b0f07.jpg?token=7fc5a7d&api=v2","tabelog_score":3.4,"price_range":"￥6,000～￥7,999"},{"id":"naniwa-22c5cab0-20211029","name":"焼肉ストーリー","genre":"焼肉","prefecture":"東京都","city":"千代田区","lat":35.700896,"lng":139.7540135,"youtube_id":"","source_video_title":"新しいタイプの焼き肉店が拡大しているのなんでやねん！を解明","visited_date":"2021-10-29","members":["大西流星"],"groups":["naniwa"],"group":"naniwa","nearest_station":"水道橋駅 徒歩2分","tags":[],"source_type":"tv","thumbnail_url":"https://tblg.k-img.com/resize/640x640c/restaurant/images/Rvw/189642/4ae6556bd734735cfb22cb99981fbf9a.jpg?token=52afb4e&api=v2","tabelog_score":3.46,"price_range":"￥8,000～￥9,999"},{"id":"naniwa-crispys_burger-20211126","name":"Crispy’s Burger","genre":"食事","prefecture":"東京都","city":"","lat":35.7067455,"lng":139.7057185,"youtube_id":"","source_video_title":" チキンバーガー専門店が急増してるのなんでやねん！を解明","visited_date":"2021-11-26","members":["長尾謙杜"],"groups":["naniwa"],"group":"naniwa","nearest_station":"西早稲田駅 徒歩5分","tags":[],"source_type":"tv","thumbnail_url":"https://tblg.k-img.com/resize/640x640c/restaurant/images/Rvw/347805/6c029d8a88549000df88249154ac6b9f.jpg?token=6405908&api=v2","tabelog_score":3.05,"price_range":"-"},{"id":"naniwa-akiba-20211126","name":"ハイカラ フライド チキン ヨドバシAkiba店","genre":"食事","prefecture":"東京都","city":"千代田区","lat":35.698802,"lng":139.773971,"youtube_id":"","source_video_title":" チキンバーガー専門店が急増してるのなんでやねん！を解明","visited_date":"2021-11-26","members":["長尾謙杜"],"groups":["naniwa"],"group":"naniwa","nearest_station":"秋葉原駅 徒歩1分","tags":[],"source_type":"tv","thumbnail_url":"https://tblg.k-img.com/resize/640x640c/restaurant/images/Rvw/167804/8054e5ba470caa4b692a6df23c23354e.jpg?token=7ad9ac8&api=v2","tabelog_score":3.09,"price_range":"～￥999"},{"id":"naniwa-3953b460-20220210","name":"牡蠣と魚","genre":"海鮮","prefecture":"東京都","city":"渋谷区","lat":35.677903,"lng":139.6740463,"youtube_id":"","source_video_title":" 無料で食べ放題できるのなんでやねん！を解明","visited_date":"2022-02-10","members":["道枝駿佑"],"groups":["naniwa"],"group":"naniwa","nearest_station":"ＪＲ 高田馬場駅 東口 徒歩3分西武新宿線 高田馬場駅 徒歩3分","tags":[],"source_type":"tv","thumbnail_url":"https://tblg.k-img.com/resize/640x640c/restaurant/images/Rvw/349748/10f44f7bc30c7522cda97878adc16c44.jpg?token=d7c4613&api=v2","tabelog_score":3.46,"price_range":"￥4,000～￥4,999"},{"id":"naniwa-2952f398-20220210","name":"ハタガヤ牛タンテール","genre":"海鮮","prefecture":"東京都","city":"渋谷区","lat":35.677903,"lng":139.6740463,"youtube_id":"","source_video_title":" 無料で食べ放題できるのなんでやねん！を解明","visited_date":"2022-02-10","members":["道枝駿佑"],"groups":["naniwa"],"group":"naniwa","nearest_station":"幡ヶ谷駅 徒歩4分","tags":[],"source_type":"tv","thumbnail_url":"https://tblg.k-img.com/resize/640x640c/restaurant/images/Rvw/216462/c9646b30e93ad2163195041fb6de8eef.jpg?token=c9ca241&api=v2","tabelog_score":3.38,"price_range":"￥3,000～￥3,999","closed":true},{"id":"naniwa-bonbonberry_atami_ho-20260327","name":"いちごBonBonBERRY ATAMI HOUSE.","genre":"カフェ","prefecture":"静岡県","city":"熱海市","lat":35.1033354,"lng":139.0782748,"youtube_id":"","source_video_title":"なにわ男子のどっち派 (2026-03-27)","visited_date":"2026-03-27","members":["道枝駿佑"],"groups":["naniwa"],"group":"naniwa","nearest_station":"","tags":[],"thumbnail_url":"","source_type":""},{"id":"naniwa-2c7cd0a3-20260327","name":"桜たいやき 田舎本舗","genre":"食事","prefecture":"静岡県","city":"熱海市","lat":35.1033354,"lng":139.0782748,"youtube_id":"","source_video_title":"なにわ男子のどっち派 (2026-03-27)","visited_date":"2026-03-27","members":["道枝駿佑"],"groups":["naniwa"],"group":"naniwa","nearest_station":"","tags":[],"thumbnail_url":"","source_type":""},{"id":"naniwa-a9c8e6d3-20260327","name":"大二郎の小籠包","genre":"焼肉","prefecture":"静岡県","city":"熱海市","lat":35.0967641,"lng":139.0736987,"youtube_id":"","source_video_title":"なにわ男子のどっち派 (2026-03-27)","visited_date":"2026-03-27","members":["道枝駿佑"],"groups":["naniwa"],"group":"naniwa","nearest_station":"","tags":[],"thumbnail_url":"","source_type":""},{"id":"naniwa-8c7601f0-20260327","name":"ウミノメグミ","genre":"寿司","prefecture":"静岡県","city":"熱海市","lat":35.1033354,"lng":139.0782748,"youtube_id":"","source_video_title":"なにわ男子のどっち派 (2026-03-27)","visited_date":"2026-03-27","members":["道枝駿佑"],"groups":["naniwa"],"group":"naniwa","nearest_station":"","tags":[],"thumbnail_url":"","source_type":""},{"id":"naniwa-himono_dining-20260327","name":"Himono Dining かまなり","genre":"カフェ","prefecture":"静岡県","city":"熱海市","lat":35.0967641,"lng":139.0736987,"youtube_id":"","source_video_title":"なにわ男子のどっち派 (2026-03-27)","visited_date":"2026-03-27","members":["道枝駿佑"],"groups":["naniwa"],"group":"naniwa","nearest_station":"","tags":[],"thumbnail_url":"","source_type":""},{"id":"naniwa-a9c8b77b-20260327","name":"熱海おさかな食堂炙り家","genre":"焼肉","prefecture":"静岡県","city":"熱海市","lat":35.0967641,"lng":139.0736987,"youtube_id":"","source_video_title":"なにわ男子のどっち派 (2026-03-27)","visited_date":"2026-03-27","members":["道枝駿佑"],"groups":["naniwa"],"group":"naniwa","nearest_station":"","tags":[],"thumbnail_url":"","source_type":""},{"id":"naniwa-goddog-20260313","name":"goddog","genre":"食事","prefecture":"東京都","city":"品川区","lat":35.5905478,"lng":139.7318083,"youtube_id":"","source_video_title":"なにわ男子のどっち派 (2026-03-13)","visited_date":"2026-03-13","members":["長尾謙杜"],"groups":["naniwa"],"group":"naniwa","nearest_station":"","tags":[],"thumbnail_url":"","source_type":""},{"id":"naniwa-getti-20260313","name":"getti 中目黒","genre":"食事","prefecture":"東京都","city":"目黒区","lat":35.6450659,"lng":139.7003219,"youtube_id":"","source_video_title":"なにわ男子のどっち派 (2026-03-13)","visited_date":"2026-03-13","members":["長尾謙杜"],"groups":["naniwa"],"group":"naniwa","nearest_station":"","tags":[],"thumbnail_url":"","source_type":""},{"id":"naniwa-b951ca5b-20260313","name":"オボンジップ 新大久保店","genre":"食事","prefecture":"東京都","city":"新宿区","lat":35.7026693,"lng":139.7061959,"youtube_id":"","source_video_title":"なにわ男子のどっち派 (2026-03-13)","visited_date":"2026-03-13","members":["長尾謙杜"],"groups":["naniwa"],"group":"naniwa","nearest_station":"","tags":[],"thumbnail_url":"","source_type":""},{"id":"naniwa-ygyg-20260313","name":"YGYGヨギヨギ","genre":"スイーツ","prefecture":"東京都","city":"渋谷区","lat":35.6593786,"lng":139.6987796,"youtube_id":"","source_video_title":"なにわ男子のどっち派 (2026-03-13)","visited_date":"2026-03-13","members":["長尾謙杜"],"groups":["naniwa"],"group":"naniwa","nearest_station":"","tags":[],"thumbnail_url":"","source_type":""},{"id":"naniwa-7d95fedd-20260313","name":"蜂蜜と米","genre":"カフェ","prefecture":"埼玉県","city":"川越市","lat":35.918918,"lng":139.482637,"youtube_id":"","source_video_title":"なにわ男子のどっち派 (2026-03-13)","visited_date":"2026-03-13","members":["長尾謙杜"],"groups":["naniwa"],"group":"naniwa","nearest_station":"","tags":[],"thumbnail_url":"","source_type":""},{"id":"naniwa-truffle_bakery-20260313","name":"Truffle BAKERY 広尾店","genre":"カフェ","prefecture":"東京都","city":"港区","lat":35.6533995,"lng":139.7250867,"youtube_id":"","source_video_title":"なにわ男子のどっち派 (2026-03-13)","visited_date":"2026-03-13","members":["長尾謙杜"],"groups":["naniwa"],"group":"naniwa","nearest_station":"","tags":[],"thumbnail_url":"","source_type":""},{"id":"naniwa-5b8baf8d-20260306","name":"マミーマート 足立島根店","genre":"食事","prefecture":"東京都","city":"足立区","lat":35.7835764,"lng":139.7946551,"youtube_id":"","source_video_title":"なにわ男子のどっち派 (2026-03-06)","visited_date":"2026-03-06","members":["西畑大吾"],"groups":["naniwa"],"group":"naniwa","nearest_station":"","tags":[],"thumbnail_url":"","source_type":""},{"id":"naniwa-da17372d-20260306","name":"サミットストア 世田谷船橋店","genre":"食事","prefecture":"東京都","city":"世田谷区","lat":35.6580231,"lng":139.6227832,"youtube_id":"","source_video_title":"なにわ男子のどっち派 (2026-03-06)","visited_date":"2026-03-06","members":["西畑大吾"],"groups":["naniwa"],"group":"naniwa","nearest_station":"","tags":[],"thumbnail_url":"","source_type":""},{"id":"naniwa-225f9d2b-20260306","name":"みどりスーパー","genre":"食事","prefecture":"埼玉県","city":"春日部市","lat":35.9785445,"lng":139.8080742,"youtube_id":"","source_video_title":"なにわ男子のどっち派 (2026-03-06)","visited_date":"2026-03-06","members":["西畑大吾"],"groups":["naniwa"],"group":"naniwa","nearest_station":"","tags":[],"thumbnail_url":"","source_type":""},{"id":"naniwa-neo_nice_burger-20260123","name":"Neo Nice Burger表参道","genre":"スイーツ","prefecture":"東京都","city":"港区","lat":35.6705999,"lng":139.7159289,"youtube_id":"","source_video_title":"なにわ男子のどっち派 (2026-01-23)","visited_date":"2026-01-23","members":["大橋和也"],"groups":["naniwa"],"group":"naniwa","nearest_station":"","tags":[],"thumbnail_url":"","source_type":""},{"id":"naniwa-d401a13e-20260123","name":"松太郎 新宿小滝橋通り店","genre":"ラーメン","prefecture":"東京都","city":"新宿区","lat":35.690719,"lng":139.6941527,"youtube_id":"","source_video_title":"なにわ男子のどっち派 (2026-01-23)","visited_date":"2026-01-23","members":["大橋和也"],"groups":["naniwa"],"group":"naniwa","nearest_station":"","tags":[],"thumbnail_url":"","source_type":""},{"id":"naniwa-6e681b2c-20260123","name":"八芳園洋菓子店","genre":"スイーツ","prefecture":"東京都","city":"港区","lat":35.6373746,"lng":139.7371325,"youtube_id":"","source_video_title":"なにわ男子のどっち派 (2026-01-23)","visited_date":"2026-01-23","members":["大橋和也"],"groups":["naniwa"],"group":"naniwa","nearest_station":"","tags":[],"thumbnail_url":"","source_type":""},{"id":"naniwa-87719514-20260123","name":"おひつごはん四六時中 板橋店","genre":"カフェ","prefecture":"東京都","city":"板橋区","lat":35.775789,"lng":139.6598681,"youtube_id":"","source_video_title":"なにわ男子のどっち派 (2026-01-23)","visited_date":"2026-01-23","members":["大橋和也"],"groups":["naniwa"],"group":"naniwa","nearest_station":"","tags":[],"thumbnail_url":"","source_type":""},{"id":"naniwa-bfe243ac-20251219","name":"道の駅 伊豆月ヶ瀬","genre":"ラーメン","prefecture":"静岡県","city":"伊豆市","lat":34.9172173,"lng":138.9240155,"youtube_id":"","source_video_title":"なにわ男子のどっち派 (2025-12-19)","visited_date":"2025-12-19","members":["道枝駿佑"],"groups":["naniwa"],"group":"naniwa","nearest_station":"","tags":[],"thumbnail_url":"","source_type":""},{"id":"naniwa-bakery_table_sweets-20251219","name":"Bakery＆Table Sweets 伊豆","genre":"カフェ","prefecture":"静岡県","city":"賀茂郡東伊豆町","lat":34.8212889,"lng":139.0671919,"youtube_id":"","source_video_title":"なにわ男子のどっち派 (2025-12-19)","visited_date":"2025-12-19","members":["道枝駿佑"],"groups":["naniwa"],"group":"naniwa","nearest_station":"","tags":[],"thumbnail_url":"","source_type":""},{"id":"naniwa-the_matcha_tokyo_har-20251212","name":"THE MATCHA TOKYO HARAJUKU","genre":"カフェ","prefecture":"東京都","city":"渋谷区","lat":35.6692039,"lng":139.7072847,"youtube_id":"","source_video_title":"なにわ男子のどっち派 (2025-12-12)","visited_date":"2025-12-12","members":["藤原丈一郎"],"groups":["naniwa"],"group":"naniwa","nearest_station":"","tags":[],"thumbnail_url":"","source_type":""},{"id":"naniwa-ginza_lounge-20260602","name":"パンとエスプレッソと GINZA LOUNGE","genre":"カフェ","prefecture":"東京都","city":"中央区","lat":35.6720135,"lng":139.7647202,"youtube_id":"","source_video_title":"なにわ男子のどっち派 (2026-06-02)","visited_date":"2026-06-02","members":["高橋恭平"],"groups":["naniwa"],"group":"naniwa","nearest_station":"","tags":[],"thumbnail_url":"","source_type":""},{"id":"naniwa-aee7c792-20251107","name":"東武ワールドスクウェア","genre":"食事","prefecture":"栃木県","city":"日光市","lat":36.8200041,"lng":139.7194862,"youtube_id":"","source_video_title":"なにわ男子のどっち派 (2025-11-07)","visited_date":"2025-11-07","members":["大西流星"],"groups":["naniwa"],"group":"naniwa","nearest_station":"","tags":[],"thumbnail_url":"","source_type":""},{"id":"naniwa-le_coup_de_foudre-20251107","name":"le coup de foudre","genre":"食事","prefecture":"栃木県","city":"日光市","lat":36.720468,"lng":139.6872715,"youtube_id":"","source_video_title":"なにわ男子のどっち派 (2025-11-07)","visited_date":"2025-11-07","members":["大西流星"],"groups":["naniwa"],"group":"naniwa","nearest_station":"","tags":[],"thumbnail_url":"","source_type":""},{"id":"naniwa-13c35ea0-20251107","name":"和スイーツ専門店 日光もなか","genre":"スイーツ","prefecture":"栃木県","city":"日光市","lat":36.750228,"lng":139.609255,"youtube_id":"","source_video_title":"なにわ男子のどっち派 (2025-11-07)","visited_date":"2025-11-07","members":["大西流星"],"groups":["naniwa"],"group":"naniwa","nearest_station":"","tags":[],"thumbnail_url":"","source_type":""},{"id":"naniwa-trickys-20251107","name":"TrickY’s駅前店","genre":"食事","prefecture":"栃木県","city":"日光市","lat":36.8200041,"lng":139.7194862,"youtube_id":"","source_video_title":"なにわ男子のどっち派 (2025-11-07)","visited_date":"2025-11-07","members":["大西流星"],"groups":["naniwa"],"group":"naniwa","nearest_station":"","tags":[],"thumbnail_url":"","source_type":""},{"id":"naniwa-cheesetable-20251017","name":"CheeseTable 池袋店","genre":"居酒屋","prefecture":"東京都","city":"豊島区","lat":35.7268304,"lng":139.7106565,"youtube_id":"","source_video_title":"なにわ男子のどっち派 (2025-10-17)","visited_date":"2025-10-17","members":["長尾謙杜"],"groups":["naniwa"],"group":"naniwa","nearest_station":"","tags":[],"thumbnail_url":"","source_type":""},{"id":"naniwa-d355c504-20251017","name":"ハンバーグとはんばーぐ","genre":"居酒屋","prefecture":"東京都","city":"渋谷区","lat":35.6618126,"lng":139.7050733,"youtube_id":"","source_video_title":"なにわ男子のどっち派 (2025-10-17)","visited_date":"2025-10-17","members":["長尾謙杜"],"groups":["naniwa"],"group":"naniwa","nearest_station":"","tags":[],"thumbnail_url":"","source_type":""},{"id":"naniwa-d73bcd8f-20251017","name":"挽肉屋 神徳","genre":"焼肉","prefecture":"東京都","city":"中央区","lat":35.671967,"lng":139.767249,"youtube_id":"","source_video_title":"なにわ男子のどっち派 (2025-10-17)","visited_date":"2025-10-17","members":["長尾謙杜"],"groups":["naniwa"],"group":"naniwa","nearest_station":"","tags":[],"thumbnail_url":"","source_type":""},{"id":"naniwa-bf5833e4-20251017","name":"中華そば 児ノ木ちごのき","genre":"ラーメン","prefecture":"東京都","city":"新宿区","lat":35.7134491,"lng":139.6928358,"youtube_id":"","source_video_title":"なにわ男子のどっち派 (2025-10-17)","visited_date":"2025-10-17","members":["長尾謙杜"],"groups":["naniwa"],"group":"naniwa","nearest_station":"","tags":[],"thumbnail_url":"","source_type":""},{"id":"naniwa-06078d89-20251017","name":"東京背脂黒醤油ラーメン 伍福軒 池袋西口店","genre":"ラーメン","prefecture":"東京都","city":"豊島区","lat":35.7301653,"lng":139.709385,"youtube_id":"","source_video_title":"なにわ男子のどっち派 (2025-10-17)","visited_date":"2025-10-17","members":["長尾謙杜"],"groups":["naniwa"],"group":"naniwa","nearest_station":"","tags":[],"thumbnail_url":"","source_type":""},{"id":"naniwa-ac7f4817-20251003","name":"すしめん処大京 酒々井店","genre":"食事","prefecture":"千葉県","city":"印旛郡酒々井町","lat":35.719741,"lng":140.259429,"youtube_id":"","source_video_title":"なにわ男子のどっち派 (2025-10-03)","visited_date":"2025-10-03","members":["大橋和也"],"groups":["naniwa"],"group":"naniwa","nearest_station":"","tags":[],"thumbnail_url":"","source_type":""},{"id":"naniwa-ob-20251003","name":"珈琲屋OB ログ八潮店","genre":"カフェ","prefecture":"埼玉県","city":"八潮市","lat":35.8251917,"lng":139.8307881,"youtube_id":"","source_video_title":"なにわ男子のどっち派 (2025-10-03)","visited_date":"2025-10-03","members":["大橋和也"],"groups":["naniwa"],"group":"naniwa","nearest_station":"","tags":[],"thumbnail_url":"","source_type":""},{"id":"naniwa-2d6045c1-20251003","name":"グランキッチン ナリタヤ 八街店","genre":"食事","prefecture":"千葉県","city":"八街市","lat":35.701601,"lng":140.306522,"youtube_id":"","source_video_title":"なにわ男子のどっち派 (2025-10-03)","visited_date":"2025-10-03","members":["大橋和也"],"groups":["naniwa"],"group":"naniwa","nearest_station":"","tags":[],"thumbnail_url":"","source_type":""},{"id":"naniwa-pizzeria_il_vicolo-20250711","name":"PIZZERIA IL VICOLO","genre":"食事","prefecture":"東京都","city":"目黒区","lat":35.6441395,"lng":139.6988317,"youtube_id":"","source_video_title":"なにわ男子のどっち派 (2025-07-11)","visited_date":"2025-07-11","members":["西畑大吾"],"groups":["naniwa"],"group":"naniwa","nearest_station":"","tags":[],"thumbnail_url":"","source_type":""},{"id":"naniwa-rahmeneddie-20250711","name":"RahmenEddie","genre":"ラーメン","prefecture":"東京都","city":"新宿区","lat":35.6899223,"lng":139.6996683,"youtube_id":"","source_video_title":"なにわ男子のどっち派 (2025-07-11)","visited_date":"2025-07-11","members":["西畑大吾"],"groups":["naniwa"],"group":"naniwa","nearest_station":"","tags":[],"thumbnail_url":"","source_type":""},{"id":"naniwa-967fc4f7-20250711","name":"ツバサコーヒー","genre":"カフェ","prefecture":"東京都","city":"新宿区","lat":35.6895408,"lng":139.7130248,"youtube_id":"","source_video_title":"なにわ男子のどっち派 (2025-07-11)","visited_date":"2025-07-11","members":["西畑大吾"],"groups":["naniwa"],"group":"naniwa","nearest_station":"","tags":[],"thumbnail_url":"","source_type":""},{"id":"naniwa-noodle-20250711","name":"サーモン noodle 三軒茶屋","genre":"ラーメン","prefecture":"東京都","city":"世田谷区","lat":35.6448796,"lng":139.6683902,"youtube_id":"","source_video_title":"なにわ男子のどっち派 (2025-07-11)","visited_date":"2025-07-11","members":["西畑大吾"],"groups":["naniwa"],"group":"naniwa","nearest_station":"","tags":[],"thumbnail_url":"","source_type":""},{"id":"naniwa-06315243-20250711","name":"ナミノリビーチ","genre":"食事","prefecture":"東京都","city":"武蔵野市","lat":35.7057807,"lng":139.5766713,"youtube_id":"","source_video_title":"なにわ男子のどっち派 (2025-07-11)","visited_date":"2025-07-11","members":["西畑大吾"],"groups":["naniwa"],"group":"naniwa","nearest_station":"","tags":[],"thumbnail_url":"","source_type":""},{"id":"naniwa-surabi-20250711","name":"Surabi 蒸し焼きおやつ 吉祥寺店","genre":"スイーツ","prefecture":"東京都","city":"武蔵野市","lat":35.700145,"lng":139.571834,"youtube_id":"","source_video_title":"なにわ男子のどっち派 (2025-07-11)","visited_date":"2025-07-11","members":["西畑大吾"],"groups":["naniwa"],"group":"naniwa","nearest_station":"","tags":[],"thumbnail_url":"","source_type":""},{"id":"naniwa-street_churros-20250711","name":"STREET CHURROS 下北沢店","genre":"食事","prefecture":"東京都","city":"世田谷区","lat":35.661998,"lng":139.6683083,"youtube_id":"","source_video_title":"なにわ男子のどっち派 (2025-07-11)","visited_date":"2025-07-11","members":["西畑大吾"],"groups":["naniwa"],"group":"naniwa","nearest_station":"","tags":[],"thumbnail_url":"","source_type":""},{"id":"naniwa-7a004fee-20250711","name":"ディオスマーラータン 心斎橋本店","genre":"食事","prefecture":"大阪府","city":"大阪市","lat":34.6733805,"lng":135.5042873,"youtube_id":"","source_video_title":"なにわ男子のどっち派 (2025-07-11)","visited_date":"2025-07-11","members":["西畑大吾"],"groups":["naniwa"],"group":"naniwa","nearest_station":"","tags":[],"thumbnail_url":"","source_type":""},{"id":"naniwa-22238bdc-20250516","name":"バーミヤン 三鷹駅南口店","genre":"焼肉","prefecture":"東京都","city":"三鷹市","lat":35.6991212,"lng":139.5625653,"youtube_id":"","source_video_title":"なにわ男子のどっち派 (2025-05-16)","visited_date":"2025-05-16","members":["大西流星"],"groups":["naniwa"],"group":"naniwa","nearest_station":"","tags":[],"thumbnail_url":"","source_type":""},{"id":"naniwa-be21cf59-20250516","name":"鎌倉パスタ 阪急大井町ガーデン店","genre":"食事","prefecture":"東京都","city":"品川区","lat":35.6001214,"lng":139.730032,"youtube_id":"","source_video_title":"なにわ男子のどっち派 (2025-05-16)","visited_date":"2025-05-16","members":["大西流星"],"groups":["naniwa"],"group":"naniwa","nearest_station":"","tags":[],"thumbnail_url":"","source_type":""},{"id":"naniwa-76a10e70-20250516","name":"ジョナサン 三鷹井口店","genre":"ラーメン","prefecture":"東京都","city":"三鷹市","lat":35.6879192,"lng":139.5479443,"youtube_id":"","source_video_title":"なにわ男子のどっち派 (2025-05-16)","visited_date":"2025-05-16","members":["大西流星"],"groups":["naniwa"],"group":"naniwa","nearest_station":"","tags":[],"thumbnail_url":"","source_type":""},{"id":"naniwa-nib-20250411","name":"nib(ニブ)","genre":"スイーツ","prefecture":"東京都","city":"中央区","lat":35.681076,"lng":139.777678,"youtube_id":"","source_video_title":"なにわ男子のどっち派 (2025-04-11)","visited_date":"2025-04-11","members":["大橋和也"],"groups":["naniwa"],"group":"naniwa","nearest_station":"","tags":[],"thumbnail_url":"","source_type":""},{"id":"naniwa-glace_letoile-20250411","name":"Glace L’etoile","genre":"スイーツ","prefecture":"東京都","city":"港区","lat":35.6567525,"lng":139.741306,"youtube_id":"","source_video_title":"なにわ男子のどっち派 (2025-04-11)","visited_date":"2025-04-11","members":["大橋和也"],"groups":["naniwa"],"group":"naniwa","nearest_station":"","tags":[],"thumbnail_url":"","source_type":""},{"id":"naniwa-mr_cheesecake_ginza-20250411","name":"Mr. CHEESECAKE GINZA SIX店","genre":"スイーツ","prefecture":"東京都","city":"中央区","lat":35.669261,"lng":139.764429,"youtube_id":"","source_video_title":"なにわ男子のどっち派 (2025-04-11)","visited_date":"2025-04-11","members":["大橋和也"],"groups":["naniwa"],"group":"naniwa","nearest_station":"","tags":[],"thumbnail_url":"","source_type":""},{"id":"naniwa-park_store-20250411","name":"PARK STORE","genre":"スイーツ","prefecture":"東京都","city":"世田谷区","lat":35.6439401,"lng":139.6823108,"youtube_id":"","source_video_title":"なにわ男子のどっち派 (2025-04-11)","visited_date":"2025-04-11","members":["大橋和也"],"groups":["naniwa"],"group":"naniwa","nearest_station":"","tags":[],"thumbnail_url":"","source_type":""},{"id":"naniwa-the_cookie_594-20250411","name":"THE COOKIE 594","genre":"スイーツ","prefecture":"東京都","city":"新宿区","lat":35.6999128,"lng":139.6997412,"youtube_id":"","source_video_title":"なにわ男子のどっち派 (2025-04-11)","visited_date":"2025-04-11","members":["大橋和也"],"groups":["naniwa"],"group":"naniwa","nearest_station":"","tags":[],"thumbnail_url":"","source_type":""},{"id":"naniwa-hiiragi_ginza-20250411","name":"HIIRAGI GINZA","genre":"焼肉","prefecture":"東京都","city":"中央区","lat":35.669261,"lng":139.764429,"youtube_id":"","source_video_title":"なにわ男子のどっち派 (2025-04-11)","visited_date":"2025-04-11","members":["大橋和也"],"groups":["naniwa"],"group":"naniwa","nearest_station":"","tags":[],"thumbnail_url":"","source_type":""},{"id":"naniwa-intellctuary-20250321","name":"intellctuary","genre":"カフェ","prefecture":"東京都","city":"品川区","lat":35.6193903,"lng":139.7284866,"youtube_id":"","source_video_title":"なにわ男子のどっち派 (2025-03-21)","visited_date":"2025-03-21","members":["大西流星"],"groups":["naniwa"],"group":"naniwa","nearest_station":"","tags":[],"thumbnail_url":"","source_type":""},{"id":"naniwa-ana-20250321","name":"ANAインターコンチネンタルホテル東京","genre":"食事","prefecture":"東京都","city":"港区","lat":35.6685017,"lng":139.7425371,"youtube_id":"","source_video_title":"なにわ男子のどっち派 (2025-03-21)","visited_date":"2025-03-21","members":["大西流星"],"groups":["naniwa"],"group":"naniwa","nearest_station":"","tags":[],"thumbnail_url":"","source_type":""},{"id":"naniwa-feedy_diner_arcade-20250321","name":"Feedy Diner&Arcade","genre":"居酒屋","prefecture":"大阪府","city":"茨木市","lat":34.8118986,"lng":135.5597923,"youtube_id":"","source_video_title":"なにわ男子のどっち派 (2025-03-21)","visited_date":"2025-03-21","members":["大西流星"],"groups":["naniwa"],"group":"naniwa","nearest_station":"","tags":[],"thumbnail_url":"","source_type":""},{"id":"naniwa-fd99efc0-20250321","name":"囍鵲亭","genre":"食事","prefecture":"埼玉県","city":"朝霞市","lat":35.816755,"lng":139.587817,"youtube_id":"","source_video_title":"なにわ男子のどっち派 (2025-03-21)","visited_date":"2025-03-21","members":["大西流星"],"groups":["naniwa"],"group":"naniwa","nearest_station":"","tags":[],"thumbnail_url":"","source_type":""},{"id":"naniwa-9502d159-20250321","name":"串カツ田中 神田店","genre":"食事","prefecture":"東京都","city":"千代田区","lat":35.6907664,"lng":139.7696653,"youtube_id":"","source_video_title":"なにわ男子のどっち派 (2025-03-21)","visited_date":"2025-03-21","members":["大西流星"],"groups":["naniwa"],"group":"naniwa","nearest_station":"","tags":[],"thumbnail_url":"","source_type":""},{"id":"naniwa-kuramae_cannele-20250321","name":"KURAMAE CANNELE","genre":"食事","prefecture":"東京都","city":"台東区","lat":35.7030395,"lng":139.7927535,"youtube_id":"","source_video_title":"なにわ男子のどっち派 (2025-03-21)","visited_date":"2025-03-21","members":["大西流星"],"groups":["naniwa"],"group":"naniwa","nearest_station":"","tags":[],"thumbnail_url":"","source_type":""},{"id":"naniwa-ancolo_cafe-20250321","name":"ancolo cafe","genre":"食事","prefecture":"東京都","city":"目黒区","lat":35.6361342,"lng":139.7110641,"youtube_id":"","source_video_title":"なにわ男子のどっち派 (2025-03-21)","visited_date":"2025-03-21","members":["大西流星"],"groups":["naniwa"],"group":"naniwa","nearest_station":"","tags":[],"thumbnail_url":"","source_type":""},{"id":"naniwa-ajillo-20250321","name":"AJILLO アヒージョ専門店 神田西口店","genre":"食事","prefecture":"東京都","city":"千代田区","lat":35.690601,"lng":139.768027,"youtube_id":"","source_video_title":"なにわ男子のどっち派 (2025-03-21)","visited_date":"2025-03-21","members":["大西流星"],"groups":["naniwa"],"group":"naniwa","nearest_station":"","tags":[],"thumbnail_url":"","source_type":""},{"id":"naniwa-coins-20250314","name":"COINS 原宿本店　スリコオニギリ","genre":"食事","prefecture":"東京都","city":"渋谷区","lat":35.6661069,"lng":139.7041199,"youtube_id":"","source_video_title":"なにわ男子のどっち派 (2025-03-14)","visited_date":"2025-03-14","members":["西畑大吾"],"groups":["naniwa"],"group":"naniwa","nearest_station":"","tags":[],"thumbnail_url":"","source_type":""},{"id":"naniwa-09d3409f-20250314","name":"麦のトリコ 元住吉店","genre":"食事","prefecture":"神奈川県","city":"川崎市","lat":35.564023,"lng":139.65547,"youtube_id":"","source_video_title":"なにわ男子のどっち派 (2025-03-14)","visited_date":"2025-03-14","members":["西畑大吾"],"groups":["naniwa"],"group":"naniwa","nearest_station":"","tags":[],"thumbnail_url":"","source_type":""},{"id":"naniwa-fb72a84f-20250314","name":"魚と野菜と土鍋ごはん吉今","genre":"食事","prefecture":"東京都","city":"新宿区","lat":35.6992681,"lng":139.7266585,"youtube_id":"","source_video_title":"なにわ男子のどっち派 (2025-03-14)","visited_date":"2025-03-14","members":["西畑大吾"],"groups":["naniwa"],"group":"naniwa","nearest_station":"","tags":[],"thumbnail_url":"","source_type":""},{"id":"naniwa-678a5e60-20250314","name":"二八蕎麦 六本木 蕎香","genre":"食事","prefecture":"東京都","city":"港区","lat":35.6642677,"lng":139.7367758,"youtube_id":"","source_video_title":"なにわ男子のどっち派 (2025-03-14)","visited_date":"2025-03-14","members":["西畑大吾"],"groups":["naniwa"],"group":"naniwa","nearest_station":"","tags":[],"thumbnail_url":"","source_type":""},{"id":"naniwa-bub_resort_yatsugata-20250124","name":"BUB RESORT Yatsugatake","genre":"食事","prefecture":"山梨県","city":"北杜市","lat":35.9417491,"lng":138.4395514,"youtube_id":"","source_video_title":"なにわ男子のどっち派 (2025-01-24)","visited_date":"2025-01-24","members":["西畑大吾"],"groups":["naniwa"],"group":"naniwa","nearest_station":"","tags":[],"thumbnail_url":"","source_type":""},{"id":"naniwa-76f73b3c-20241025","name":"ベルク 練馬高松店","genre":"食事","prefecture":"東京都","city":"練馬区","lat":35.7481019,"lng":139.6273654,"youtube_id":"","source_video_title":"なにわ男子のどっち派 (2024-10-25)","visited_date":"2024-10-25","members":["道枝駿佑"],"groups":["naniwa"],"group":"naniwa","nearest_station":"","tags":[],"thumbnail_url":"","source_type":""},{"id":"naniwa-753a6c5f-","name":"東京華山椒®️","genre":"ラーメン","prefecture":"東京都","city":"足立区","lat":35.7634903,"lng":139.7893202,"youtube_id":"","source_video_title":"なにわ男子のどっち派","visited_date":"","members":["藤原丈一郎"],"groups":["naniwa"],"group":"naniwa","nearest_station":"","tags":[],"thumbnail_url":"","source_type":""},{"id":"naniwa-2eb977bf-","name":"喫茶店ピノキオ 足立佐野店","genre":"スイーツ","prefecture":"東京都","city":"足立区","lat":35.7869402,"lng":139.8428464,"youtube_id":"","source_video_title":"なにわ男子のどっち派","visited_date":"","members":["藤原丈一郎"],"groups":["naniwa"],"group":"naniwa","nearest_station":"","tags":[],"thumbnail_url":"","source_type":""},{"id":"naniwa-cafe_ichifuji-","name":"Cafe Ichifuji","genre":"カフェ","prefecture":"東京都","city":"三鷹市","lat":35.6964799,"lng":139.565496,"youtube_id":"","source_video_title":"なにわ男子のどっち派","visited_date":"","members":["藤原丈一郎"],"groups":["naniwa"],"group":"naniwa","nearest_station":"","tags":[],"thumbnail_url":"","source_type":""},{"id":"naniwa-onigily_cafe-","name":"Onigily Cafe","genre":"カフェ","prefecture":"東京都","city":"渋谷区","lat":35.6658083,"lng":139.6876001,"youtube_id":"","source_video_title":"なにわ男子のどっち派","visited_date":"","members":["藤原丈一郎"],"groups":["naniwa"],"group":"naniwa","nearest_station":"","tags":[],"thumbnail_url":"","source_type":""},{"id":"naniwa-9d3720a8-","name":"喫茶 アメリカン","genre":"カフェ","prefecture":"東京都","city":"中央区","lat":35.67117,"lng":139.766249,"youtube_id":"","source_video_title":"なにわ男子のどっち派","visited_date":"","members":["藤原丈一郎"],"groups":["naniwa"],"group":"naniwa","nearest_station":"","tags":[],"thumbnail_url":"","source_type":""},{"id":"naniwa-cafe_yue-","name":"Cafe yue","genre":"カフェ","prefecture":"東京都","city":"台東区","lat":35.7247892,"lng":139.7685576,"youtube_id":"","source_video_title":"なにわ男子のどっち派","visited_date":"","members":["藤原丈一郎"],"groups":["naniwa"],"group":"naniwa","nearest_station":"","tags":[],"thumbnail_url":"","source_type":""},{"id":"naniwa-65478ad5-","name":"新世界市場","genre":"カフェ","prefecture":"大阪府","city":"大阪市","lat":34.6532201,"lng":135.5066201,"youtube_id":"","source_video_title":"なにわ男子のどっち派","visited_date":"","members":["大西流星"],"groups":["naniwa"],"group":"naniwa","nearest_station":"","tags":[],"thumbnail_url":"","source_type":""},{"id":"naniwa-oseba-","name":"OSEBA","genre":"食事","prefecture":"東京都","city":"八王子市","lat":35.6642256,"lng":139.3594049,"youtube_id":"","source_video_title":"なにわ男子のどっち派","visited_date":"","members":["高橋恭平"],"groups":["naniwa"],"group":"naniwa","nearest_station":"","tags":[],"thumbnail_url":"","source_type":""},{"id":"naniwa-7780906f-20240524","name":"ホテルニューアカオ","genre":"カフェ","prefecture":"静岡県","city":"熱海市","lat":35.1037499,"lng":139.0782076,"youtube_id":"","source_video_title":"なにわ男子のどっち派 (2024-05-24)","visited_date":"2024-05-24","members":["西畑大吾"],"groups":["naniwa"],"group":"naniwa","nearest_station":"","tags":[],"thumbnail_url":"","source_type":""},{"id":"naniwa-33f24bc0-20240524","name":"リゾナーレ熱海","genre":"カフェ","prefecture":"静岡県","city":"熱海市","lat":35.0958469,"lng":139.0682073,"youtube_id":"","source_video_title":"なにわ男子のどっち派 (2024-05-24)","visited_date":"2024-05-24","members":["西畑大吾"],"groups":["naniwa"],"group":"naniwa","nearest_station":"","tags":[],"thumbnail_url":"","source_type":""},{"id":"naniwa-cbe15dcb-20240517","name":"潮風キッチン","genre":"食事","prefecture":"神奈川県","city":"藤沢市","lat":35.3393936,"lng":139.4465071,"youtube_id":"","source_video_title":"なにわ男子のどっち派 (2024-05-17)","visited_date":"2024-05-17","members":["藤原丈一郎"],"groups":["naniwa"],"group":"naniwa","nearest_station":"","tags":[],"thumbnail_url":"","source_type":""},{"id":"naniwa-evviva-20240517","name":"EVVIVA!","genre":"食事","prefecture":"神奈川県","city":"海老名市","lat":35.4557271,"lng":139.3887716,"youtube_id":"","source_video_title":"なにわ男子のどっち派 (2024-05-17)","visited_date":"2024-05-17","members":["藤原丈一郎"],"groups":["naniwa"],"group":"naniwa","nearest_station":"","tags":[],"thumbnail_url":"","source_type":""},{"id":"naniwa-9ebc7581-20240517","name":"グランツリー武蔵小杉","genre":"食事","prefecture":"神奈川県","city":"川崎市","lat":35.574728,"lng":139.6612,"youtube_id":"","source_video_title":"なにわ男子のどっち派 (2024-05-17)","visited_date":"2024-05-17","members":["藤原丈一郎"],"groups":["naniwa"],"group":"naniwa","nearest_station":"","tags":[],"thumbnail_url":"","source_type":""},{"id":"naniwa-kosugi_grill_market-20240517","name":"KOSUGI GRILL MARKET","genre":"焼肉","prefecture":"神奈川県","city":"川崎市","lat":35.574686,"lng":139.657252,"youtube_id":"","source_video_title":"なにわ男子のどっち派 (2024-05-17)","visited_date":"2024-05-17","members":["藤原丈一郎"],"groups":["naniwa"],"group":"naniwa","nearest_station":"","tags":[],"thumbnail_url":"","source_type":""},{"id":"naniwa-50c3d93a-20240322","name":"道の駅 しょうなん","genre":"居酒屋","prefecture":"千葉県","city":"柏市","lat":35.857143,"lng":140.023132,"youtube_id":"","source_video_title":"なにわ男子のどっち派 (2024-03-22)","visited_date":"2024-03-22","members":["長尾謙杜"],"groups":["naniwa"],"group":"naniwa","nearest_station":"","tags":[],"thumbnail_url":"","source_type":""},{"id":"naniwa-460adc19-20240209","name":"肉オムライス専門店 肉とたまご","genre":"焼肉","prefecture":"東京都","city":"新宿区","lat":35.6911647,"lng":139.7040655,"youtube_id":"","source_video_title":"なにわ男子のどっち派 (2024-02-09)","visited_date":"2024-02-09","members":["長尾謙杜"],"groups":["naniwa"],"group":"naniwa","nearest_station":"","tags":[],"thumbnail_url":"","source_type":""},{"id":"naniwa-acfd49cb-20240209","name":"たまご専門本巣ヱ 東京本家","genre":"カフェ","prefecture":"東京都","city":"港区","lat":35.6551899,"lng":139.7363345,"youtube_id":"","source_video_title":"なにわ男子のどっち派 (2024-02-09)","visited_date":"2024-02-09","members":["長尾謙杜"],"groups":["naniwa"],"group":"naniwa","nearest_station":"","tags":[],"thumbnail_url":"","source_type":""},{"id":"naniwa-9f3d0e1a-20240209","name":"シャトレーゼ 焼きたてスイーツ＆ソフトクリーム","genre":"スイーツ","prefecture":"東京都","city":"豊島区","lat":35.7265922,"lng":139.7157472,"youtube_id":"","source_video_title":"なにわ男子のどっち派 (2024-02-09)","visited_date":"2024-02-09","members":["長尾謙杜"],"groups":["naniwa"],"group":"naniwa","nearest_station":"","tags":[],"thumbnail_url":"","source_type":""},{"id":"naniwa-14f81629-20240126","name":"ザ・リビング","genre":"カフェ","prefecture":"東京都","city":"大田区","lat":35.5706647,"lng":139.6923407,"youtube_id":"","source_video_title":"なにわ男子のどっち派 (2024-01-26)","visited_date":"2024-01-26","members":["高橋恭平"],"groups":["naniwa"],"group":"naniwa","nearest_station":"","tags":[],"thumbnail_url":"","source_type":""},{"id":"naniwa-abc_farm-20240126","name":"ABC FARM","genre":"スイーツ","prefecture":"東京都","city":"昭島市","lat":35.7202101,"lng":139.3767428,"youtube_id":"","source_video_title":"なにわ男子のどっち派 (2024-01-26)","visited_date":"2024-01-26","members":["高橋恭平"],"groups":["naniwa"],"group":"naniwa","nearest_station":"","tags":[],"thumbnail_url":"","source_type":""},{"id":"naniwa-ddb01104-20240126","name":"ホテル インターコンチネンタル 東京ベイ","genre":"スイーツ","prefecture":"東京都","city":"港区","lat":35.6553108,"lng":139.7617766,"youtube_id":"","source_video_title":"なにわ男子のどっち派 (2024-01-26)","visited_date":"2024-01-26","members":["高橋恭平"],"groups":["naniwa"],"group":"naniwa","nearest_station":"","tags":[],"thumbnail_url":"","source_type":""},{"id":"naniwa-ee9eceb7-20240126","name":"毛呂山バリアフリー苺の里","genre":"スイーツ","prefecture":"埼玉県","city":"入間郡毛呂山町","lat":35.9523314,"lng":139.3537352,"youtube_id":"","source_video_title":"なにわ男子のどっち派 (2024-01-26)","visited_date":"2024-01-26","members":["高橋恭平"],"groups":["naniwa"],"group":"naniwa","nearest_station":"","tags":[],"thumbnail_url":"","source_type":""},{"id":"naniwa-lattencos-20240105","name":"lattencos","genre":"カフェ","prefecture":"東京都","city":"新宿区","lat":35.6999128,"lng":139.6997412,"youtube_id":"","source_video_title":"なにわ男子のどっち派 (2024-01-05)","visited_date":"2024-01-05","members":["長尾謙杜"],"groups":["naniwa"],"group":"naniwa","nearest_station":"","tags":[],"thumbnail_url":"","source_type":""},{"id":"naniwa-oh_bhaiya-20240105","name":"OH BHAIYA！","genre":"スイーツ","prefecture":"東京都","city":"江戸川区","lat":35.6674208,"lng":139.8580746,"youtube_id":"","source_video_title":"なにわ男子のどっち派 (2024-01-05)","visited_date":"2024-01-05","members":["長尾謙杜"],"groups":["naniwa"],"group":"naniwa","nearest_station":"","tags":[],"thumbnail_url":"","source_type":""},{"id":"naniwa-21-20231103","name":"21時にアイス 駒沢店","genre":"スイーツ","prefecture":"東京都","city":"世田谷区","lat":35.631292,"lng":139.6559363,"youtube_id":"","source_video_title":"なにわ男子のどっち派 (2023-11-03)","visited_date":"2023-11-03","members":["大西流星"],"groups":["naniwa"],"group":"naniwa","nearest_station":"","tags":[],"thumbnail_url":"","source_type":""},{"id":"naniwa-51fb8923-20231103","name":"米農園 田町店","genre":"食事","prefecture":"東京都","city":"港区","lat":35.647148,"lng":139.7469836,"youtube_id":"","source_video_title":"なにわ男子のどっち派 (2023-11-03)","visited_date":"2023-11-03","members":["大西流星"],"groups":["naniwa"],"group":"naniwa","nearest_station":"","tags":[],"thumbnail_url":"","source_type":""},{"id":"naniwa-kakigori_cafe_bar_ye-20231103","name":"KAKIGORI CAFE&BAR yelo","genre":"スイーツ","prefecture":"東京都","city":"港区","lat":35.6624568,"lng":139.7334981,"youtube_id":"","source_video_title":"なにわ男子のどっち派 (2023-11-03)","visited_date":"2023-11-03","members":["大西流星"],"groups":["naniwa"],"group":"naniwa","nearest_station":"","tags":[],"thumbnail_url":"","source_type":""},{"id":"naniwa-83054c77-20231103","name":"戸越屋 渋谷道玄坂店","genre":"焼肉","prefecture":"東京都","city":"渋谷区","lat":35.6593786,"lng":139.6987796,"youtube_id":"","source_video_title":"なにわ男子のどっち派 (2023-11-03)","visited_date":"2023-11-03","members":["大西流星"],"groups":["naniwa"],"group":"naniwa","nearest_station":"","tags":[],"thumbnail_url":"","source_type":""},{"id":"naniwa-6dbb8956-20231027","name":"デニーズ 竹の塚店","genre":"焼肉","prefecture":"東京都","city":"足立区","lat":35.7943959,"lng":139.7966758,"youtube_id":"","source_video_title":"なにわ男子のどっち派 (2023-10-27)","visited_date":"2023-10-27","members":["高橋恭平"],"groups":["naniwa"],"group":"naniwa","nearest_station":"","tags":[],"thumbnail_url":"","source_type":""},{"id":"naniwa-76bc3877-20231020","name":"花重谷中茶屋","genre":"カフェ","prefecture":"東京都","city":"台東区","lat":35.7251953,"lng":139.7714782,"youtube_id":"","source_video_title":"なにわ男子のどっち派 (2023-10-20)","visited_date":"2023-10-20","members":["西畑大吾"],"groups":["naniwa"],"group":"naniwa","nearest_station":"","tags":[],"thumbnail_url":"","source_type":""},{"id":"naniwa-annorum-20231020","name":"annorum","genre":"カフェ","prefecture":"東京都","city":"台東区","lat":35.718839,"lng":139.7965783,"youtube_id":"","source_video_title":"なにわ男子のどっち派 (2023-10-20)","visited_date":"2023-10-20","members":["西畑大吾"],"groups":["naniwa"],"group":"naniwa","nearest_station":"","tags":[],"thumbnail_url":"","source_type":""},{"id":"naniwa-tera_cafe_shien_zojo-20231020","name":"TERA CAFE SHIEN -ZOJOJI-","genre":"カフェ","prefecture":"東京都","city":"港区","lat":35.6564572,"lng":139.7481,"youtube_id":"","source_video_title":"なにわ男子のどっち派 (2023-10-20)","visited_date":"2023-10-20","members":["西畑大吾"],"groups":["naniwa"],"group":"naniwa","nearest_station":"","tags":[],"thumbnail_url":"","source_type":""},{"id":"naniwa-5bd1f25b-20231020","name":"カフェテラス普賢寺","genre":"カフェ","prefecture":"東京都","city":"府中市","lat":35.6765335,"lng":139.5091979,"youtube_id":"","source_video_title":"なにわ男子のどっち派 (2023-10-20)","visited_date":"2023-10-20","members":["西畑大吾"],"groups":["naniwa"],"group":"naniwa","nearest_station":"","tags":[],"thumbnail_url":"","source_type":""},{"id":"naniwa-monnaka_coffee-20230901","name":"MONNAKA COFFEE","genre":"カフェ","prefecture":"東京都","city":"江東区","lat":35.672524,"lng":139.795782,"youtube_id":"","source_video_title":"なにわ男子のどっち派 (2023-09-01)","visited_date":"2023-09-01","members":["長尾謙杜"],"groups":["naniwa"],"group":"naniwa","nearest_station":"","tags":[],"thumbnail_url":"","source_type":""},{"id":"naniwa-mont_nom-20230901","name":"MONT-NOM","genre":"カフェ","prefecture":"東京都","city":"目黒区","lat":35.6100712,"lng":139.6703187,"youtube_id":"","source_video_title":"なにわ男子のどっち派 (2023-09-01)","visited_date":"2023-09-01","members":["長尾謙杜"],"groups":["naniwa"],"group":"naniwa","nearest_station":"","tags":[],"thumbnail_url":"","source_type":""},{"id":"naniwa-merci_life_organics-20230901","name":"Merci life organics 練馬店","genre":"カフェ","prefecture":"東京都","city":"練馬区","lat":35.7651329,"lng":139.6666486,"youtube_id":"","source_video_title":"なにわ男子のどっち派 (2023-09-01)","visited_date":"2023-09-01","members":["長尾謙杜"],"groups":["naniwa"],"group":"naniwa","nearest_station":"","tags":[],"thumbnail_url":"","source_type":""},{"id":"naniwa-59d48180-20230901","name":"パン屋ザクロ","genre":"カフェ","prefecture":"神奈川県","city":"横須賀市","lat":35.2209125,"lng":139.691464,"youtube_id":"","source_video_title":"なにわ男子のどっち派 (2023-09-01)","visited_date":"2023-09-01","members":["長尾謙杜"],"groups":["naniwa"],"group":"naniwa","nearest_station":"","tags":[],"thumbnail_url":"","source_type":""},{"id":"naniwa-d9ed0eff-20230901","name":"ジュウニブン ベーカリー 三軒茶屋本店","genre":"カフェ","prefecture":"東京都","city":"世田谷区","lat":35.6421171,"lng":139.6687889,"youtube_id":"","source_video_title":"なにわ男子のどっち派 (2023-09-01)","visited_date":"2023-09-01","members":["長尾謙杜"],"groups":["naniwa"],"group":"naniwa","nearest_station":"","tags":[],"thumbnail_url":"","source_type":""},{"id":"naniwa-2f3299d3-20230818","name":"大山生煎店","genre":"食事","prefecture":"東京都","city":"目黒区","lat":35.6114502,"lng":139.6675812,"youtube_id":"","source_video_title":"なにわ男子のどっち派 (2023-08-18)","visited_date":"2023-08-18","members":["大橋和也"],"groups":["naniwa"],"group":"naniwa","nearest_station":"","tags":[],"thumbnail_url":"","source_type":""},{"id":"naniwa-7f749e04-20230818","name":"和風回鍋肉専門店だしや。","genre":"焼肉","prefecture":"東京都","city":"千代田区","lat":35.697996,"lng":139.7769499,"youtube_id":"","source_video_title":"なにわ男子のどっち派 (2023-08-18)","visited_date":"2023-08-18","members":["大橋和也"],"groups":["naniwa"],"group":"naniwa","nearest_station":"","tags":[],"thumbnail_url":"","source_type":""},{"id":"naniwa-3692a4dc-20230818","name":"みそめぼれ","genre":"食事","prefecture":"東京都","city":"港区","lat":35.6624568,"lng":139.7334981,"youtube_id":"","source_video_title":"なにわ男子のどっち派 (2023-08-18)","visited_date":"2023-08-18","members":["大橋和也"],"groups":["naniwa"],"group":"naniwa","nearest_station":"","tags":[],"thumbnail_url":"","source_type":""},{"id":"naniwa-606d04cb-20230818","name":"スシロー 五反田店","genre":"食事","prefecture":"東京都","city":"品川区","lat":35.6245841,"lng":139.7232038,"youtube_id":"","source_video_title":"なにわ男子のどっち派 (2023-08-18)","visited_date":"2023-08-18","members":["大橋和也"],"groups":["naniwa"],"group":"naniwa","nearest_station":"","tags":[],"thumbnail_url":"","source_type":""},{"id":"naniwa-6826556b-20230721","name":"ゴールデンタイガー","genre":"食事","prefecture":"埼玉県","city":"熊谷市","lat":36.1439051,"lng":139.3881637,"youtube_id":"","source_video_title":"なにわ男子のどっち派 (2023-07-21)","visited_date":"2023-07-21","members":["道枝駿佑"],"groups":["naniwa"],"group":"naniwa","nearest_station":"","tags":[],"thumbnail_url":"","source_type":""},{"id":"naniwa-88584f67-20230721","name":"はるちゃんラーメン","genre":"ラーメン","prefecture":"東京都","city":"港区","lat":35.6668663,"lng":139.7574154,"youtube_id":"","source_video_title":"なにわ男子のどっち派 (2023-07-21)","visited_date":"2023-07-21","members":["道枝駿佑"],"groups":["naniwa"],"group":"naniwa","nearest_station":"","tags":[],"thumbnail_url":"","source_type":""},{"id":"naniwa-2155b749-20230623","name":"ラブリー・アニモア","genre":"食事","prefecture":"東京都","city":"墨田区","lat":35.7125387,"lng":139.8148147,"youtube_id":"","source_video_title":"なにわ男子のどっち派 (2023-06-23)","visited_date":"2023-06-23","members":["道枝駿佑"],"groups":["naniwa"],"group":"naniwa","nearest_station":"","tags":[],"thumbnail_url":"","source_type":""},{"id":"naniwa-cafe_capyba-20230623","name":"cafe capyba","genre":"カフェ","prefecture":"東京都","city":"墨田区","lat":35.7243341,"lng":139.8193077,"youtube_id":"","source_video_title":"なにわ男子のどっち派 (2023-06-23)","visited_date":"2023-06-23","members":["道枝駿佑"],"groups":["naniwa"],"group":"naniwa","nearest_station":"","tags":[],"thumbnail_url":"","source_type":""},{"id":"naniwa-785ed299-20230623","name":"あうるぱーく フクロウカフェ","genre":"カフェ","prefecture":"東京都","city":"豊島区","lat":35.7291561,"lng":139.7044431,"youtube_id":"","source_video_title":"なにわ男子のどっち派 (2023-06-23)","visited_date":"2023-06-23","members":["道枝駿佑"],"groups":["naniwa"],"group":"naniwa","nearest_station":"","tags":[],"thumbnail_url":"","source_type":""},{"id":"naniwa-4a80cda9-20230602","name":"ふわり","genre":"スイーツ","prefecture":"東京都","city":"中央区","lat":35.6858176,"lng":139.7831041,"youtube_id":"","source_video_title":"なにわ男子のどっち派 (2023-06-02)","visited_date":"2023-06-02","members":["大橋和也"],"groups":["naniwa"],"group":"naniwa","nearest_station":"","tags":[],"thumbnail_url":"","source_type":""},{"id":"naniwa-a282a6b1-20230602","name":"西荻３時","genre":"カフェ","prefecture":"東京都","city":"杉並区","lat":35.7059767,"lng":139.599342,"youtube_id":"","source_video_title":"なにわ男子のどっち派 (2023-06-02)","visited_date":"2023-06-02","members":["大橋和也"],"groups":["naniwa"],"group":"naniwa","nearest_station":"","tags":[],"thumbnail_url":"","source_type":""},{"id":"naniwa-1d6e8883-20230602","name":"ジョリッティカフェ","genre":"カフェ","prefecture":"東京都","city":"千代田区","lat":35.673888,"lng":139.76281,"youtube_id":"","source_video_title":"なにわ男子のどっち派 (2023-06-02)","visited_date":"2023-06-02","members":["大橋和也"],"groups":["naniwa"],"group":"naniwa","nearest_station":"","tags":[],"thumbnail_url":"","source_type":""},{"id":"naniwa-376379fa-20230505","name":"銀座朝食ラボ","genre":"食事","prefecture":"東京都","city":"中央区","lat":35.668438,"lng":139.763386,"youtube_id":"","source_video_title":"なにわ男子のどっち派 (2023-05-05)","visited_date":"2023-05-05","members":["長尾謙杜"],"groups":["naniwa"],"group":"naniwa","nearest_station":"","tags":[],"thumbnail_url":"","source_type":""},{"id":"naniwa-07e0a7b7-20230428","name":"銀座のステーキ 銀座中央店","genre":"焼肉","prefecture":"東京都","city":"中央区","lat":35.670113,"lng":139.765481,"youtube_id":"","source_video_title":"なにわ男子のどっち派 (2023-04-28)","visited_date":"2023-04-28","members":["道枝駿佑"],"groups":["naniwa"],"group":"naniwa","nearest_station":"","tags":[],"thumbnail_url":"","source_type":""},{"id":"naniwa-alc_beef-20230428","name":"ALC BEEF キッチン","genre":"焼肉","prefecture":"神奈川県","city":"川崎市","lat":35.5302136,"lng":139.6973611,"youtube_id":"","source_video_title":"なにわ男子のどっち派 (2023-04-28)","visited_date":"2023-04-28","members":["道枝駿佑"],"groups":["naniwa"],"group":"naniwa","nearest_station":"","tags":[],"thumbnail_url":"","source_type":""},{"id":"naniwa-bf845096-20230428","name":"神戸牛ダイア","genre":"焼肉","prefecture":"東京都","city":"中央区","lat":35.6868492,"lng":139.7734674,"youtube_id":"","source_video_title":"なにわ男子のどっち派 (2023-04-28)","visited_date":"2023-04-28","members":["道枝駿佑"],"groups":["naniwa"],"group":"naniwa","nearest_station":"","tags":[],"thumbnail_url":"","source_type":""},{"id":"naniwa-312d9fa1-20230428","name":"臥薪(がしん) 武蔵小杉店","genre":"焼肉","prefecture":"神奈川県","city":"川崎市","lat":35.577515,"lng":139.657455,"youtube_id":"","source_video_title":"なにわ男子のどっち派 (2023-04-28)","visited_date":"2023-04-28","members":["道枝駿佑"],"groups":["naniwa"],"group":"naniwa","nearest_station":"","tags":[],"thumbnail_url":"","source_type":""}]