[{"id":"notme-cafe-202411","name":"タコライスcafe きじむなぁ デポアイランド店","genre":"カフェ","prefecture":"沖縄県","city":"中頭郡北谷町","lat":26.3270896,"lng":127.7538362,"youtube_id":"ZwwzPBGFK5c","source_video_title":"","visited_date":"2024-11-25","members":["鈴木瞳美"],"groups":["notme"],"group":"notme","nearest_station":"","tags":[],"thumbnail_url":"https://img.youtube.com/vi/ZwwzPBGFK5c/hqdefault.jpg","tabelog_score":3.46,"price_range":"～￥999"},{"id":"notme-b9e687dc-202411","name":"ブルーシールカフェ デポアイランド","genre":"カフェ","prefecture":"沖縄県","city":"中頭郡北谷町","lat":26.3270896,"lng":127.7538362,"youtube_id":"ZwwzPBGFK5c","source_video_title":"","visited_date":"2024-11-25","members":["鈴木瞳美"],"groups":["notme"],"group":"notme","nearest_station":"","tags":[],"thumbnail_url":"https://img.youtube.com/vi/ZwwzPBGFK5c/hqdefault.jpg"},{"id":"notme-30129d4e-202411","name":"シュガークレープ","genre":"スイーツ","prefecture":"沖縄県","city":"中頭郡北谷町","lat":26.3270896,"lng":127.7538362,"youtube_id":"ZwwzPBGFK5c","source_video_title":"","visited_date":"2024-11-25","members":["鈴木瞳美"],"groups":["notme"],"group":"notme","nearest_station":"","tags":[],"thumbnail_url":"https://img.youtube.com/vi/ZwwzPBGFK5c/hqdefault.jpg","tabelog_score":3.0,"price_range":"-"},{"id":"notme-304ed516-202411","name":"かき氷工房 雪菓","genre":"スイーツ","prefecture":"東京都","city":"豊島区","lat":35.7341105,"lng":139.7353515,"youtube_id":"ZSCnrDeujnM","source_video_title":"","visited_date":"2024-11-08","members":["尾木波菜","河口夏音"],"groups":["notme"],"group":"notme","nearest_station":"巣鴨駅 徒歩4分","tags":[],"thumbnail_url":"https://img.youtube.com/vi/ZSCnrDeujnM/hqdefault.jpg","tabelog_score":3.66,"price_range":"￥1,000～￥1,999"},{"id":"notme-d25dc737-202411","name":"磯揚げ まる天 熱海店","genre":"食事","prefecture":"静岡県","city":"熱海市","lat":35.1033354,"lng":139.0782748,"youtube_id":"IwPmbzmNeQg","source_video_title":"","visited_date":"2024-11-01","members":["鈴木瞳美"],"groups":["notme"],"group":"notme","nearest_station":"熱海駅 徒歩1分","tags":[],"thumbnail_url":"https://img.youtube.com/vi/IwPmbzmNeQg/hqdefault.jpg","tabelog_score":3.34,"price_range":"￥1,000～￥1,999"},{"id":"notme-a542cec1-202411","name":"杉山名産店","genre":"食事","prefecture":"静岡県","city":"熱海市","lat":35.1033354,"lng":139.0782748,"youtube_id":"IwPmbzmNeQg","source_video_title":"","visited_date":"2024-11-01","members":["鈴木瞳美"],"groups":["notme"],"group":"notme","nearest_station":"熱海駅 徒歩1分","tags":[],"thumbnail_url":"https://img.youtube.com/vi/IwPmbzmNeQg/hqdefault.jpg","tabelog_score":3.07,"price_range":"-"},{"id":"notme-4e507645-202411","name":"又一庵謹製熱海ばたーあん","genre":"スイーツ","prefecture":"静岡県","city":"熱海市","lat":35.1033354,"lng":139.0782748,"youtube_id":"IwPmbzmNeQg","source_video_title":"","visited_date":"2024-11-01","members":["鈴木瞳美"],"groups":["notme"],"group":"notme","nearest_station":"jr熱海駅 徒歩5分","tags":[],"thumbnail_url":"https://img.youtube.com/vi/IwPmbzmNeQg/hqdefault.jpg","tabelog_score":3.44,"price_range":"￥1,000～￥1,999"},{"id":"notme-1st-202411","name":"熱海プリン 1st本店","genre":"スイーツ","prefecture":"静岡県","city":"熱海市","lat":35.1033354,"lng":139.0782748,"youtube_id":"IwPmbzmNeQg","source_video_title":"","visited_date":"2024-11-01","members":["鈴木瞳美"],"groups":["notme"],"group":"notme","nearest_station":"熱海駅 徒歩1分","tags":[],"thumbnail_url":"https://img.youtube.com/vi/IwPmbzmNeQg/hqdefault.jpg","tabelog_score":3.6,"price_range":"～￥999"},{"id":"notme-12cab5ae-202410","name":"焼肉トラジ 池袋東口店","genre":"焼肉","prefecture":"東京都","city":"豊島区","lat":35.7265922,"lng":139.7157472,"youtube_id":"Btsp0ae5Tzc","source_video_title":"","visited_date":"2024-10-02","members":["鈴木瞳美"],"groups":["notme"],"group":"notme","nearest_station":"都電雑司ヶ谷駅 徒歩5分","tags":[],"thumbnail_url":"https://img.youtube.com/vi/Btsp0ae5Tzc/hqdefault.jpg","tabelog_score":3.09,"price_range":"￥6,000～￥7,999"},{"id":"notme-b2f81d0e-202408","name":"うしごろ 銀座並木通り店","genre":"焼肉","prefecture":"東京都","city":"中央区","lat":35.670113,"lng":139.765481,"youtube_id":"2K6Hh_G1uZg","source_video_title":"","visited_date":"2024-08-21","members":["蟹沢萌子","冨田菜々風"],"groups":["notme"],"group":"notme","nearest_station":"東銀座駅 徒歩2分","tags":[],"thumbnail_url":"https://img.youtube.com/vi/2K6Hh_G1uZg/hqdefault.jpg","tabelog_score":3.69,"price_range":"￥10,000～￥14,999"},{"id":"notme-dog_cat_joker_avenue-202408","name":"DOG&CAT JOKER二子玉川 -AVENUE&CARE-","genre":"その他","prefecture":"東京都","city":"世田谷区","lat":35.6141434,"lng":139.6247439,"youtube_id":"Sn79vTeVxSU","source_video_title":"","visited_date":"2024-08-14","members":["蟹沢萌子"],"groups":["notme"],"group":"notme","nearest_station":"二子玉川駅 徒歩5分","tags":[],"thumbnail_url":"https://img.youtube.com/vi/Sn79vTeVxSU/hqdefault.jpg"},{"id":"notme-273b4aa9-202408","name":"焼肉トラジ 京橋店","genre":"焼肉","prefecture":"東京都","city":"中央区","lat":35.675404,"lng":139.769895,"youtube_id":"8Ydv8IXxHjE","source_video_title":"","visited_date":"2024-08-14","members":["蟹沢萌子","冨田菜々風"],"groups":["notme"],"group":"notme","nearest_station":"京橋駅 徒歩2分","tags":[],"thumbnail_url":"https://img.youtube.com/vi/8Ydv8IXxHjE/hqdefault.jpg","tabelog_score":3.28,"price_range":"￥5,000～￥5,999"},{"id":"notme-37c541ad-202408","name":"凸凹堂軽井沢","genre":"食事","prefecture":"長野県","city":"","lat":36.3425512,"lng":138.6351092,"youtube_id":"UC_nxGtuqAg","source_video_title":"","visited_date":"2024-08-14","members":["蟹沢萌子","冨田菜々風"],"groups":["notme"],"group":"notme","nearest_station":"軽井沢駅 徒歩1分","tags":[],"thumbnail_url":"https://img.youtube.com/vi/UC_nxGtuqAg/hqdefault.jpg"},{"id":"notme-db5ba582-202408","name":"杉養蜂園 軽井沢2号店","genre":"スイーツ","prefecture":"長野県","city":"","lat":36.3624355,"lng":138.6397246,"youtube_id":"UC_nxGtuqAg","source_video_title":"","visited_date":"2024-08-14","members":["蟹沢萌子","冨田菜々風"],"groups":["notme"],"group":"notme","nearest_station":"","tags":[],"thumbnail_url":"https://img.youtube.com/vi/UC_nxGtuqAg/hqdefault.jpg","tabelog_score":3.01,"price_range":"-"},{"id":"notme-41f4ca0a-202408","name":"ドライブイン 熱海プリン食堂","genre":"スイーツ","prefecture":"静岡県","city":"熱海市","lat":35.0631541,"lng":139.0709965,"youtube_id":"fSBicVF8TfQ","source_video_title":"","visited_date":"2024-08-05","members":["蟹沢萌子","河口夏音","菅波美玲","冨田菜々風"],"groups":["notme"],"group":"notme","nearest_station":"伊豆多賀駅 徒歩10分","tags":[],"thumbnail_url":"https://img.youtube.com/vi/fSBicVF8TfQ/hqdefault.jpg","tabelog_score":3.49,"price_range":"-"},{"id":"notme-9293ad0d-202408","name":"昔の矢場とん","genre":"食事","prefecture":"愛知県","city":"名古屋市","lat":35.1601877,"lng":136.8998373,"youtube_id":"xPGJTsYsPvk","source_video_title":"","visited_date":"2024-08-04","members":["鈴木瞳美","谷崎早耶","冨田菜々風"],"groups":["notme"],"group":"notme","nearest_station":"大須観音駅 徒歩3分","tags":[],"thumbnail_url":"https://img.youtube.com/vi/xPGJTsYsPvk/hqdefault.jpg","tabelog_score":3.48,"price_range":"￥2,000～￥2,999"},{"id":"notme-897b73f1-202408","name":"水曜日のアリス 名古屋","genre":"食事","prefecture":"愛知県","city":"名古屋市","lat":35.1601877,"lng":136.8998373,"youtube_id":"xPGJTsYsPvk","source_video_title":"","visited_date":"2024-08-04","members":["鈴木瞳美","谷崎早耶","冨田菜々風"],"groups":["notme"],"group":"notme","nearest_station":"大須観音駅 徒歩3分","tags":[],"thumbnail_url":"https://img.youtube.com/vi/xPGJTsYsPvk/hqdefault.jpg","tabelog_score":3.15,"price_range":"-"},{"id":"notme-6b8de214-202408","name":"嵐山駅 前","genre":"食事","prefecture":"京都府","city":"京都市","lat":35.015144,"lng":135.675153,"youtube_id":"zIST21lyxR0","source_video_title":"","visited_date":"2024-08-04","members":["尾木波菜","菅波美玲","谷崎早耶"],"groups":["notme"],"group":"notme","nearest_station":"嵐山駅 徒歩4分","tags":[],"thumbnail_url":"https://img.youtube.com/vi/zIST21lyxR0/hqdefault.jpg","tabelog_score":3.03,"price_range":"-"},{"id":"notme-wego-202408","name":"WEGO 原宿竹下通り店","genre":"その他","prefecture":"東京都","city":"渋谷区","lat":35.671513,"lng":139.7057319,"youtube_id":"JaVIswh-hyI","source_video_title":"","visited_date":"2024-08-04","members":["尾木波菜","菅波美玲","谷崎早耶","永田詩央里"],"groups":["notme"],"group":"notme","nearest_station":"明治神宮前〈原宿〉駅 徒歩5分","tags":[],"thumbnail_url":"https://img.youtube.com/vi/JaVIswh-hyI/hqdefault.jpg"},{"id":"notme-bb3bf1c0-202408","name":"かに道楽 道頓堀本店","genre":"食事","prefecture":"大阪府","city":"大阪市","lat":34.6685063,"lng":135.5032623,"youtube_id":"vUhfX5OTw_w","source_video_title":"","visited_date":"2024-08-04","members":[],"groups":["notme"],"group":"notme","nearest_station":"近鉄日本橋駅 徒歩5分","tags":[],"thumbnail_url":"https://img.youtube.com/vi/vUhfX5OTw_w/hqdefault.jpg","tabelog_score":3.17,"price_range":"￥10,000～￥14,999"},{"id":"notme-fc500dbe-202408","name":"づぼらや 道頓堀店 前","genre":"食事","prefecture":"大阪府","city":"大阪市","lat":34.6685063,"lng":135.5032623,"youtube_id":"vUhfX5OTw_w","source_video_title":"","visited_date":"2024-08-04","members":[],"groups":["notme"],"group":"notme","nearest_station":"近鉄日本橋駅 徒歩5分","tags":[],"thumbnail_url":"https://img.youtube.com/vi/vUhfX5OTw_w/hqdefault.jpg"},{"id":"notme-a0944480-202408","name":"ハイランドリゾートホテル＆スパ エントランス前","genre":"食事","prefecture":"山梨県","city":"富士吉田市","lat":35.4859993,"lng":138.7812404,"youtube_id":"HdYprsQJxWY","source_video_title":"","visited_date":"2024-08-04","members":[],"groups":["notme"],"group":"notme","nearest_station":"富士急ハイランド駅 徒歩6分","tags":[],"thumbnail_url":"https://img.youtube.com/vi/HdYprsQJxWY/hqdefault.jpg"},{"id":"notme-flipper_s-202408","name":"FLIPPER'S 下北沢店","genre":"スイーツ","prefecture":"東京都","city":"世田谷区","lat":35.661998,"lng":139.6683083,"youtube_id":"o8PItsNaK7U","source_video_title":"","visited_date":"2024-08-04","members":["冨田菜々風","蟹沢萌子"],"groups":["notme"],"group":"notme","nearest_station":"下北沢駅 徒歩2分","tags":[],"thumbnail_url":"https://img.youtube.com/vi/o8PItsNaK7U/hqdefault.jpg","tabelog_score":3.13,"price_range":"￥1,000～￥1,999"},{"id":"notme-c1966798-202408","name":"中華街餃子館 興記","genre":"中華","prefecture":"神奈川県","city":"横浜市","lat":35.4429058,"lng":139.6514509,"youtube_id":"z7JkgbJj-sY","source_video_title":"","visited_date":"2024-08-04","members":["蟹沢萌子","河口夏音","鈴木瞳美","谷崎早耶"],"groups":["notme"],"group":"notme","nearest_station":"元町・中華街駅 徒歩2分","tags":[],"thumbnail_url":"https://img.youtube.com/vi/z7JkgbJj-sY/hqdefault.jpg","tabelog_score":3.09,"price_range":"￥1,000～￥1,999"},{"id":"notme-mocha-202408","name":"猫カフェ MOCHA 原宿店","genre":"カフェ","prefecture":"東京都","city":"渋谷区","lat":35.671513,"lng":139.7057319,"youtube_id":"Iz_DvhCMMwU","source_video_title":"","visited_date":"2024-08-04","members":["菅波美玲","谷崎早耶"],"groups":["notme"],"group":"notme","nearest_station":"明治神宮前〈原宿〉駅 徒歩5分","tags":[],"thumbnail_url":"https://img.youtube.com/vi/Iz_DvhCMMwU/hqdefault.jpg"},{"id":"notme-4bae4322-202505","name":"釣船茶屋ざうお 渋谷店","genre":"居酒屋","prefecture":"東京都","city":"渋谷区","lat":35.6635006,"lng":139.7001582,"youtube_id":"ySSbRZtJti8","source_video_title":"","visited_date":"2025-05-04","members":["冨田菜々風","櫻井もも"],"groups":["notme"],"group":"notme","nearest_station":"渋谷駅 徒歩8分","tags":[],"thumbnail_url":"https://img.youtube.com/vi/ySSbRZtJti8/hqdefault.jpg","tabelog_score":3.3,"price_range":"￥4,000～￥4,999"},{"id":"notme-ff35be8a-202501","name":"浅草きんぎょ","genre":"食事","prefecture":"東京都","city":"台東区","lat":35.714955,"lng":139.7957367,"youtube_id":"LdUACXvOHqE","source_video_title":"","visited_date":"2025-01-12","members":["鈴木瞳美"],"groups":["notme"],"group":"notme","nearest_station":"目白駅 徒歩2分","tags":[],"thumbnail_url":"https://img.youtube.com/vi/LdUACXvOHqE/hqdefault.jpg","tabelog_score":3.39,"price_range":"￥5,000～￥5,999"},{"id":"notme-4ab42c47-202501","name":"フルーツ果物王国","genre":"食事","prefecture":"東京都","city":"台東区","lat":35.7119497,"lng":139.7948545,"youtube_id":"LdUACXvOHqE","source_video_title":"","visited_date":"2025-01-12","members":["鈴木瞳美"],"groups":["notme"],"group":"notme","nearest_station":"浅草駅 徒歩5分","tags":[],"thumbnail_url":"https://img.youtube.com/vi/LdUACXvOHqE/hqdefault.jpg","tabelog_score":3.21,"price_range":"-"},{"id":"notme-720f6f5f-202412","name":"神楽坂 てっぱんや","genre":"食事","prefecture":"東京都","city":"新宿区","lat":35.7014604,"lng":139.740964,"youtube_id":"5pW7TxTE93g","source_video_title":"","visited_date":"2024-12-21","members":["鈴木瞳美","櫻井もも","河口夏音","永田詩央里"],"groups":["notme"],"group":"notme","nearest_station":"JR 飯田橋駅 徒歩5分","tags":[],"thumbnail_url":"https://img.youtube.com/vi/5pW7TxTE93g/hqdefault.jpg","tabelog_score":3.46,"price_range":"￥6,000～￥7,999"},{"id":"notme-9f107f1a-202408","name":"揚げもみじの紅葉堂 弐番屋","genre":"スイーツ","prefecture":"広島県","city":"廿日市","lat":34.2988011,"lng":132.3212291,"youtube_id":"9bPMIjNEq8k","source_video_title":"","visited_date":"2024-08-12","members":["櫻井もも","永田詩央里","本田珠由記"],"groups":["notme"],"group":"notme","nearest_station":"","tags":[],"thumbnail_url":"https://img.youtube.com/vi/9bPMIjNEq8k/hqdefault.jpg","tabelog_score":3.61,"price_range":"～￥999"},{"id":"notme-46637985-202408","name":"あなごめし ふじたや","genre":"和食","prefecture":"広島県","city":"廿日市","lat":34.2988011,"lng":132.3212291,"youtube_id":"9bPMIjNEq8k","source_video_title":"","visited_date":"2024-08-12","members":["櫻井もも","永田詩央里","本田珠由記"],"groups":["notme"],"group":"notme","nearest_station":"","tags":[],"thumbnail_url":"https://img.youtube.com/vi/9bPMIjNEq8k/hqdefault.jpg","tabelog_score":3.64,"price_range":"-"},{"id":"notme-2d3e71a8-202408","name":"すごう農園直売所「ピアッツァ」","genre":"食事","prefecture":"千葉県","city":"八千代市","lat":35.730495,"lng":140.090714,"youtube_id":"MsDUT0xeXeo","source_video_title":"","visited_date":"2024-08-08","members":["落合希来里","蟹沢萌子","本田珠由記"],"groups":["notme"],"group":"notme","nearest_station":"八千代中央駅 徒歩19分","tags":[],"thumbnail_url":"https://img.youtube.com/vi/MsDUT0xeXeo/hqdefault.jpg"},{"id":"notme-sanrio_cafe-202408","name":"SANRIO CAFE 池袋店","genre":"カフェ","prefecture":"東京都","city":"豊島区","lat":35.7311554,"lng":139.7149383,"youtube_id":"gQ8M3JURXOY","source_video_title":"","visited_date":"2024-08-06","members":["谷崎早耶","本田珠由記"],"groups":["notme"],"group":"notme","nearest_station":"池袋駅 徒歩5分","tags":[],"thumbnail_url":"https://img.youtube.com/vi/gQ8M3JURXOY/hqdefault.jpg","tabelog_score":3.35,"price_range":"-"},{"id":"notme-0a69203d-202408","name":"ホテル大野屋","genre":"食事","prefecture":"静岡県","city":"熱海市","lat":35.0894744,"lng":139.0794494,"youtube_id":"8wK5c2HUoRo","source_video_title":"","visited_date":"2024-08-05","members":["蟹沢萌子","河口夏音","菅波美玲","冨田菜々風"],"groups":["notme"],"group":"notme","nearest_station":"","tags":[],"thumbnail_url":"https://img.youtube.com/vi/8wK5c2HUoRo/hqdefault.jpg","tabelog_score":3.22,"price_range":"￥10,000～￥14,999"},{"id":"notme-f0a8c1b8-202408","name":"桜井商店 ひもの店","genre":"食事","prefecture":"静岡県","city":"熱海市","lat":35.1025312,"lng":139.0802967,"youtube_id":"8wK5c2HUoRo","source_video_title":"","visited_date":"2024-08-05","members":["蟹沢萌子","河口夏音","菅波美玲","冨田菜々風"],"groups":["notme"],"group":"notme","nearest_station":"熱海駅 徒歩4分","tags":[],"thumbnail_url":"https://img.youtube.com/vi/8wK5c2HUoRo/hqdefault.jpg","price_range":"-"},{"id":"notme-4c1956bb-202408","name":"いいらまんじゅう 阿部商店","genre":"食事","prefecture":"静岡県","city":"熱海市","lat":35.1033354,"lng":139.0782748,"youtube_id":"8wK5c2HUoRo","source_video_title":"","visited_date":"2024-08-05","members":["蟹沢萌子","河口夏音","菅波美玲","冨田菜々風"],"groups":["notme"],"group":"notme","nearest_station":"熱海駅 徒歩1分","tags":[],"thumbnail_url":"https://img.youtube.com/vi/8wK5c2HUoRo/hqdefault.jpg","tabelog_score":3.44,"price_range":"-"},{"id":"notme-55b10f69-202408","name":"丸高名産店","genre":"食事","prefecture":"静岡県","city":"熱海市","lat":35.1033354,"lng":139.0782748,"youtube_id":"8wK5c2HUoRo","source_video_title":"","visited_date":"2024-08-05","members":["蟹沢萌子","河口夏音","菅波美玲","冨田菜々風"],"groups":["notme"],"group":"notme","nearest_station":"熱海駅 徒歩1分","tags":[],"thumbnail_url":"https://img.youtube.com/vi/8wK5c2HUoRo/hqdefault.jpg","tabelog_score":3.02,"price_range":"-"},{"id":"notme-78097fab-202408","name":"レストラン嵐山 売店","genre":"食事","prefecture":"京都府","city":"京都市","lat":35.0168,"lng":135.6727,"youtube_id":"ltMYDQsJ5YQ","source_video_title":"","visited_date":"2024-08-04","members":["尾木波菜","菅波美玲","谷崎早耶"],"groups":["notme"],"group":"notme","nearest_station":"トロッコ嵐山駅 徒歩4分","tags":[],"thumbnail_url":"https://img.youtube.com/vi/ltMYDQsJ5YQ/hqdefault.jpg","tabelog_score":3.13,"price_range":"￥1,000～￥1,999"}]