[{"id":"snowman-pablo-meguro","name":"スペイン料理 Pablo","genre":"shokuji","prefecture":"東京都","city":"目黒区","lat":35.6438,"lng":139.7073,"youtube_id":"q9xC9ARZrR4","members":["深澤辰哉","渡辺翔太","宮舘涼太","阿部亮平"],"groups":["snowman"],"group":"snowman","visited_date":"2024-10-02","tags":["スペイン料理","パエリア","目黒"],"thumbnail_url":"https://img.youtube.com/vi/q9xC9ARZrR4/hqdefault.jpg","tabelog_score":3.6,"price_range":"￥5,000～￥5,999","nearest_station":"恵比寿駅 徒歩6分"},{"id":"snowman-donabe-gohan-ikushika","name":"土鍋ご飯いくしか 中目黒店","genre":"washoku","prefecture":"東京都","city":"目黒区","lat":35.6443,"lng":139.7003,"youtube_id":"8R-AlLRghJc","members":["深澤辰哉","岩本照","阿部亮平","向井康二"],"groups":["snowman"],"group":"snowman","visited_date":"2025-06-11","tags":["土鍋ご飯","中目黒","定食"],"thumbnail_url":"https://img.youtube.com/vi/8R-AlLRghJc/hqdefault.jpg","tabelog_score":3.36,"price_range":"￥2,000～￥2,999","nearest_station":"東京メトロ日比谷線（東急東横線）中目黒駅 徒歩5分"},{"id":"snowman-iseyashokudo-yodobashi","name":"伊勢屋食堂（淀橋市場内）","genre":"others","prefecture":"東京都","city":"新宿区","lat":35.7014,"lng":139.6931,"youtube_id":"1cQeue2ITFU","members":["渡辺翔太","阿部亮平","向井康二","ラウール"],"groups":["snowman"],"group":"snowman","visited_date":"2025-02-05","tags":["食堂","市場","新宿","昭和レトロ"],"thumbnail_url":"https://img.youtube.com/vi/1cQeue2ITFU/hqdefault.jpg","tabelog_score":3.49,"price_range":"-","nearest_station":"JR総武線 大久保駅(北口）徒歩7分 JR山手線 新大久保駅 徒歩10分"},{"id":"snowman-ryuho-kagurazaka","name":"龍朋","genre":"chuka","prefecture":"東京都","city":"新宿区","lat":35.703,"lng":139.7383,"youtube_id":"EWIafNjEYU4","members":["宮舘涼太","岩本照","阿部亮平","目黒蓮"],"groups":["snowman","kodoku_no_gurume"],"group":"snowman","visited_date":"2024-12-04","tags":["町中華","神楽坂","チャーハン","孤独のグルメ"],"source_video_title":"Snow Man【街中華の名店で朝食】急きょ目黒がザクロ狩り!?","thumbnail_url":"https://img.youtube.com/vi/EWIafNjEYU4/hqdefault.jpg","nearest_station":"東西線「神楽坂」駅(2番出口)　徒歩1分","tabelog_score":3.66,"price_range":"～￥999"},{"id":"snowman-onigiri-asakusa-yadoroku","name":"おにぎり浅草宿六","genre":"washoku","prefecture":"東京都","city":"台東区","lat":35.7181,"lng":139.8025,"youtube_id":"RpcyxzXS4ww","members":["深澤辰哉","渡辺翔太","向井康二","ラウール"],"groups":["snowman"],"group":"snowman","visited_date":"2024-09-18","tags":["おにぎり","浅草","ミシュラン"],"source_video_title":"Snow Man【東京で最古…元祖にぎりめし】やっぱ「おにぎり」ってサイコーだ","thumbnail_url":"https://img.youtube.com/vi/RpcyxzXS4ww/hqdefault.jpg","tabelog_score":3.49,"price_range":"￥1,000～￥1,999","nearest_station":"つくばエクスプレス浅草駅 徒歩3分"},{"id":"snowman-tsurujiro-asakusa","name":"浅草つる次郎 HANARE","genre":"washoku","prefecture":"東京都","city":"台東区","lat":35.7116,"lng":139.797,"youtube_id":"DgRmrlrRUN8","members":["渡辺翔太","阿部亮平","目黒蓮","佐久間大介"],"groups":["snowman"],"group":"snowman","visited_date":"2024-05-08","tags":["もんじゃ","浅草"],"source_video_title":"Snow Man【アスレチックに行く前にまずはメシ！ 】ある意味…ソウルフードだね!!","thumbnail_url":"https://img.youtube.com/vi/DgRmrlrRUN8/hqdefault.jpg","tabelog_score":3.33,"price_range":"￥4,000～￥4,999","nearest_station":"地下鉄銀座線 浅草駅 徒歩2分"},{"id":"snowman-brettz-cafe-omotesando","name":"ブレッツカフェ クレープリー 表参道店","genre":"cafe","prefecture":"東京都","city":"渋谷区","lat":35.6705,"lng":139.7128,"youtube_id":"F_8ppM90cTA","members":["ラウール","渡辺翔太","阿部亮平","宮舘涼太"],"groups":["snowman"],"group":"snowman","visited_date":"2024-03-06","tags":["ガレット","クレープ","表参道","カフェ"],"source_video_title":"Snow Man【パリから来た伝説の男登場】ガレットってこんなに美味いのか✨","thumbnail_url":"https://img.youtube.com/vi/F_8ppM90cTA/hqdefault.jpg","nearest_station":"「表参道駅」 A2出口より徒歩6分","tabelog_score":3.52,"price_range":"￥2,000～￥2,999"},{"id":"snowman-kitchen-rocco-hachioji","name":"Kitchen ROCCO","genre":"shokuji","prefecture":"東京都","city":"八王子市","lat":35.6622,"lng":139.3065,"youtube_id":"LsocWDFXCKs","members":["ラウール","目黒蓮","宮舘涼太","佐久間大介"],"groups":["snowman"],"group":"snowman","visited_date":"2023-12-27","tags":["イタリアン","八王子","白ナポリタン"],"source_video_title":"Snow Man【八王子でジモメシをいただく❗️】新発見!?白ナポリタンって何❓","thumbnail_url":"https://img.youtube.com/vi/LsocWDFXCKs/hqdefault.jpg","nearest_station":"「八王子駅」より徒歩7分","tabelog_score":3.33,"price_range":"￥3,000～￥3,999"},{"id":"snowman-abura-gakkai-waseda","name":"武蔵野アブラ學会 早稲田別館","genre":"ramen","prefecture":"東京都","city":"新宿区","lat":35.7072,"lng":139.7192,"youtube_id":"owkOeu-efg4","members":["岩本照","ラウール","阿部亮平","宮舘涼太"],"groups":["snowman"],"group":"snowman","visited_date":"2025-04-23","tags":["油そば","早稲田","ラーメン"],"source_video_title":"Snow Man【油そばブーム到来】人生初になります","thumbnail_url":"https://img.youtube.com/vi/owkOeu-efg4/hqdefault.jpg","nearest_station":"「早稲田駅」より徒歩1分","tabelog_score":3.32,"price_range":"～￥999"},{"id":"snowman-napure-minamiaoyama","name":"ナプレ 南青山本店","genre":"shokuji","prefecture":"東京都","city":"港区","lat":35.6651,"lng":139.7184,"youtube_id":"BVjwdZw66Ms","members":["阿部亮平","宮舘涼太","渡辺翔太","佐久間大介"],"groups":["snowman"],"group":"snowman","visited_date":"2025-04-16","tags":["ピザ","南青山","イタリアン"],"source_video_title":"Snow Man【みんなでピザが食べたい】スタジアムライブ直前です","thumbnail_url":"https://img.youtube.com/vi/BVjwdZw66Ms/hqdefault.jpg","nearest_station":"「表参道駅」（B1出口）より徒歩1分","tabelog_score":3.56,"price_range":"￥6,000～￥7,999"},{"id":"snowman-sarashina-horii-motoazabu","name":"総本家更科堀井 本店","genre":"washoku","prefecture":"東京都","city":"港区","lat":35.6544,"lng":139.7336,"youtube_id":"Ax1f_OVispA","members":["岩本照","深澤辰哉","佐久間大介","宮舘涼太"],"groups":["snowman"],"group":"snowman","visited_date":"2025-03-12","tags":["そば","麻布十番","老舗","更科"],"source_video_title":"Snow Man【創業200年の蕎麦屋さん】美味しすぎて…ただ食べる","thumbnail_url":"https://img.youtube.com/vi/Ax1f_OVispA/hqdefault.jpg","nearest_station":"「六本木駅」（3番出口）より徒歩10分「麻布十番駅」（4番出口）より徒歩7分","tabelog_score":3.65,"price_range":"￥5,000～￥5,999"},{"id":"snowman-wagaya-shokudo-kasai","name":"わが家の食堂 葛西店","genre":"washoku","prefecture":"東京都","city":"江戸川区","lat":35.6551,"lng":139.8727,"youtube_id":"qSQOsjs5ve8","members":["目黒蓮","ラウール","深澤辰哉","岩本照"],"groups":["snowman"],"group":"snowman","visited_date":"2025-03-05","tags":["定食","惣菜バイキング","葛西","24時間"],"source_video_title":"Snow Man【街の定食屋さんで極上ランチ】美味すぎて…黙っちゃう 笑笑","thumbnail_url":"https://img.youtube.com/vi/qSQOsjs5ve8/hqdefault.jpg","nearest_station":"「葛西駅」より徒歩7分","tabelog_score":3.15,"price_range":"￥1,000～￥1,999"},{"id":"snowman-yakuzenya-ebisu","name":"薬膳キッチン やくぜんや","genre":"washoku","prefecture":"東京都","city":"渋谷区","lat":35.6469,"lng":139.7139,"youtube_id":"GpPJOgdEbhE","members":["岩本照","深澤辰哉","渡辺翔太","佐久間大介"],"groups":["snowman"],"group":"snowman","visited_date":"2025-09-24","tags":["薬膳","恵比寿","健康"],"source_video_title":"Snow Man【身体に良いらしい…ので食べてみたい】薬膳料理でランチ","thumbnail_url":"https://img.youtube.com/vi/GpPJOgdEbhE/hqdefault.jpg","nearest_station":"「恵比寿駅」より徒歩2分","tabelog_score":3.4,"price_range":"￥4,000～￥4,999"},{"id":"snowman-ginza-sushi-banya-kai","name":"GINZA SUSHI BANYA KAI","genre":"washoku","prefecture":"東京都","city":"中央区","lat":35.6727,"lng":139.7683,"youtube_id":"5TbjbC6I9vY","members":["渡辺翔太","向井康二","ラウール"],"groups":["snowman"],"group":"snowman","visited_date":"2025-12-17","tags":["寿司","銀座","おまかせ","江戸前"],"source_video_title":"Snow Man【ザギンでシースー】北海道直前のご褒美タイム","thumbnail_url":"https://img.youtube.com/vi/5TbjbC6I9vY/hqdefault.jpg","nearest_station":"「銀座1丁目駅」より徒歩1分「有楽町駅」より徒歩3分","tabelog_score":3.51,"price_range":"￥8,000～￥9,999"},{"id":"snowman-futago-roppongi","name":"大阪焼肉・ホルモン ふたご 六本木店","genre":"yakiniku","prefecture":"東京都","city":"港区","lat":35.663,"lng":139.7302,"youtube_id":"m357q_FwBCE","members":["目黒蓮","阿部亮平"],"groups":["snowman"],"group":"snowman","visited_date":"2025-12-03","tags":["焼肉","ホルモン","六本木","大阪スタイル"],"source_video_title":"Snow Man【思い出のあの場所で…焼肉】完全プライベートですみません","thumbnail_url":"https://img.youtube.com/vi/m357q_FwBCE/hqdefault.jpg","nearest_station":"「六本木駅」より徒歩3分","tabelog_score":3.09,"price_range":"￥5,000～￥5,999"},{"id":"snowman-ore-no-kappo-ebisu","name":"俺の割烹 炉ばた 恵比寿","genre":"izakaya","prefecture":"東京都","city":"渋谷区","lat":35.6476,"lng":139.7131,"youtube_id":"ueYUZJghOzw","members":["岩本照","深澤辰哉","宮舘涼太","阿部亮平"],"groups":["snowman"],"group":"snowman","visited_date":"2026-01-21","tags":["炉端焼き","割烹","恵比寿","居酒屋"],"source_video_title":"Snow Man【炉端焼きを食べたい！】足湯したくなるほどのおいしさ！？","thumbnail_url":"https://img.youtube.com/vi/ueYUZJghOzw/hqdefault.jpg","nearest_station":"「恵比寿駅」より徒歩2分","tabelog_score":3.45,"price_range":"￥6,000～￥7,999"},{"id":"snowman-teikoku-shokudo-nishiazabu","name":"帝國食堂","genre":"shokuji","prefecture":"東京都","city":"港区","lat":35.6563,"lng":139.724,"youtube_id":"8j6glqZxVzU","members":["佐久間大介","深澤辰哉","渡辺翔太","向井康二"],"groups":["snowman"],"group":"snowman","visited_date":"2026-02-11","tags":["フレンチ","西麻布","ビストロ"],"source_video_title":"Snow Man【フレンチを食べよう！】メンバーの食べる顔を見るのが幸せ！","thumbnail_url":"https://img.youtube.com/vi/8j6glqZxVzU/hqdefault.jpg","nearest_station":"千代田線「乃木坂駅」より徒歩9分日比谷線「六本木駅」より徒歩13分","tabelog_score":3.29,"price_range":"￥8,000～￥9,999"},{"id":"snowman-setouchi-bar-collabo","name":"瀬戸内バル Collabo","genre":"shokuji","prefecture":"東京都","city":"世田谷区","lat":35.6446,"lng":139.6693,"youtube_id":"HksFKrub-_s","members":["岩本照","ラウール","宮舘涼太","佐久間大介"],"groups":["snowman"],"group":"snowman","visited_date":"2024-11-27","tags":["バル","三軒茶屋","瀬戸内","魚介"],"source_video_title":"Snow Man【バルでランチ】ただただ幸せにご飯食べてます🍕","thumbnail_url":"https://img.youtube.com/vi/HksFKrub-_s/hqdefault.jpg","nearest_station":"三軒茶屋駅から徒歩6分","tabelog_score":3.37,"price_range":"￥3,000～￥3,999"},{"id":"snowman-kitchen-nanagoku-waseda","name":"キッチン南国","genre":"washoku","prefecture":"東京都","city":"新宿区","lat":35.7072,"lng":139.721,"youtube_id":"iTskjw-fo_I","members":["佐久間大介","深澤辰哉","宮舘涼太","目黒蓮"],"groups":["snowman"],"group":"snowman","visited_date":"2024-05-29","tags":["洋食","早稲田","定食"],"source_video_title":"Snow Man【俺たちが大学生だったら…】こんな感じでメシ食うよね！","thumbnail_url":"https://img.youtube.com/vi/iTskjw-fo_I/hqdefault.jpg","tabelog_score":3.46,"price_range":"～￥999","nearest_station":"早稲田駅 徒歩3分"},{"id":"snowman-asagaya-birdland","name":"阿佐ヶ谷バードランド","genre":"izakaya","prefecture":"東京都","city":"杉並区","lat":35.7047,"lng":139.6391,"youtube_id":"SoZCXSgz8wo","members":["深澤辰哉","岩本照","渡辺翔太","阿部亮平"],"groups":["snowman"],"group":"snowman","visited_date":"2023-11-29","tags":["焼き鳥","阿佐ヶ谷","ミシュラン","奥久慈しゃも"],"source_video_title":"Snow Man【ミシュランの名店】極上の焼き鳥をいただこう","thumbnail_url":"https://img.youtube.com/vi/SoZCXSgz8wo/hqdefault.jpg","nearest_station":"「阿佐ヶ谷駅」より徒歩2分","tabelog_score":3.57,"price_range":"￥10,000～￥14,999"},{"id":"snowman-ekawatei-koganei","name":"江川亭 小金井本店","genre":"ramen","prefecture":"東京都","city":"小金井市","lat":35.7027,"lng":139.5136,"youtube_id":"HGSvw6srgNU","members":["岩本照","深澤辰哉","渡辺翔太","向井康二"],"groups":["snowman"],"group":"snowman","visited_date":"2024-04-03","tags":["ラーメン","小金井","とんこつ"],"source_video_title":"Snow Man【地元で有名なラーメン店】なんだかサイコーの日になりました✨","thumbnail_url":"https://img.youtube.com/vi/HGSvw6srgNU/hqdefault.jpg","tabelog_score":3.22,"price_range":"～￥999","nearest_station":"武蔵小金井駅 徒歩10分"},{"id":"snowman-panda-restaurant-shibuya","name":"パンダレストラン","genre":"chuka","prefecture":"東京都","city":"渋谷区","lat":35.6574,"lng":139.7,"youtube_id":null,"members":["深澤辰哉"],"groups":["snowman"],"group":"snowman","visited_date":"2019-12-04","tags":["中華","渋谷","広東料理"],"thumbnail_url":"https://tblg.k-img.com/resize/640x640c/restaurant/images/Rvw/256209/251156473d9258245ec5f571e6763912.jpg?token=d3cf121&api=v2","tabelog_score":3.47,"price_range":"￥3,000～￥3,999","nearest_station":"渋谷駅 徒歩2分"},{"id":"snowman-gust-roppongi","name":"ガスト 六本木店","genre":"shokuji","prefecture":"東京都","city":"港区","lat":35.663,"lng":139.7302,"youtube_id":"SVXHY5KpPuA","members":["岩本照","深澤辰哉","ラウール","渡辺翔太","向井康二"],"groups":["snowman"],"group":"snowman","visited_date":"2026-03-18","tags":["ファミレス","六本木"],"source_video_title":"Snow Man【ガストでお腹いっぱいになろう！】６周年の記念日はドリンクバーで乾杯！","thumbnail_url":"https://img.youtube.com/vi/SVXHY5KpPuA/hqdefault.jpg","nearest_station":"「六本木駅」より徒歩3分","tabelog_score":3.06,"price_range":"￥1,000～￥1,999"},{"id":"snowman-kokonotsu-kitasenju","name":"ここのつ 3号店","genre":"washoku","prefecture":"東京都","city":"足立区","lat":35.7491,"lng":139.8025,"youtube_id":"8ZQTzKfmMrM","members":["向井康二","渡辺翔太","阿部亮平","佐久間大介"],"groups":["snowman"],"group":"snowman","visited_date":"2024-04-17","tags":["定食","北千住","レバニラ"],"source_video_title":"Snow Man【人生最高のレバニラに出会った!?】向井康二は人生初納豆に苦","thumbnail_url":"https://img.youtube.com/vi/8ZQTzKfmMrM/hqdefault.jpg","nearest_station":"「北千住駅」より徒歩7分","tabelog_score":3.12,"price_range":"￥5,000～￥5,999"},{"id":"snowman-kitchen-peanuts-arakawa","name":"キッチン ぴーなっつ","genre":"shokuji","prefecture":"東京都","city":"荒川区","lat":35.7464,"lng":139.7744,"youtube_id":"","members":["深澤辰哉","ラウール","向井康二","目黒蓮"],"groups":["snowman"],"group":"snowman","visited_date":"2023-10-25","tags":["洋食","荒川区","ハンバーグ"],"thumbnail_url":"https://tblg.k-img.com/resize/640x640c/restaurant/images/Rvw/259102/d4681aa165d9e817d550290566c9d9c4.jpg?token=e535984&api=v2","tabelog_score":3.22,"price_range":"-","nearest_station":"東尾久三丁目駅 徒歩2分"},{"id":"snowman-unagi-kawamatu-higashikurume","name":"うなぎ川松","genre":"washoku","prefecture":"東京都","city":"東久留米市","lat":35.759,"lng":139.5303,"youtube_id":"oEsMgH5QhFQ","members":["岩本照","深澤辰哉","佐久間大介","目黒蓮"],"groups":["snowman"],"group":"snowman","visited_date":"2024-02-07","tags":["うなぎ","東久留米","老舗"],"source_video_title":"Snow Man【釣り部結成記念食事会】鰻を食べよう","thumbnail_url":"https://img.youtube.com/vi/oEsMgH5QhFQ/hqdefault.jpg","nearest_station":"「前沢十字路」バス停下車徒歩3分","tabelog_score":3.36,"price_range":"￥4,000～￥4,999"},{"id":"snowman-de-salita-akasaka","name":"Trattoria e Pizzeria De salita 赤坂","genre":"shokuji","prefecture":"東京都","city":"港区","lat":35.6757,"lng":139.7367,"youtube_id":"flzByEH1qc8","members":["岩本照","深澤辰哉","渡辺翔太","向井康二","阿部亮平","宮舘涼太","佐久間大介","目黒蓮","ラウール"],"groups":["snowman"],"group":"snowman","visited_date":"2020-03-25","tags":["イタリアン","赤坂","ピザ"],"source_video_title":"Snow Man「宮舘の食べたいものを当てろ！」イタリアン編","thumbnail_url":"https://img.youtube.com/vi/flzByEH1qc8/hqdefault.jpg","nearest_station":"東京メトロ銀座線赤坂見附駅徒歩1分","tabelog_score":3.46,"price_range":"￥4,000～￥4,999"},{"id":"snowman-haneda-ichiba-ginza","name":"羽田市場 GINZA SEVEN","genre":"washoku","prefecture":"東京都","city":"中央区","lat":35.6693,"lng":139.7633,"youtube_id":"WplSm1TEzbI","members":["岩本照","宮舘涼太","佐久間大介","目黒蓮"],"groups":["snowman"],"group":"snowman","visited_date":"2025-07-30","tags":["寿司","銀座","海鮮"],"source_video_title":"Snow Man【贅沢ランチ】ザギンでシースー 笑","thumbnail_url":"https://img.youtube.com/vi/WplSm1TEzbI/hqdefault.jpg","tabelog_score":3.43,"price_range":"￥10,000～￥14,999","nearest_station":"地下鉄日比谷線「東銀座」駅 徒歩5分"},{"id":"snowman-ad3a68f9-202506","name":"土鍋ご飯いくしか 中目黒","genre":"washoku","prefecture":"東京都","city":"目黒区","lat":35.6438,"lng":139.6985,"youtube_id":"8R-AlLRghJc","members":["向井康二","深澤辰哉","ラウール","阿部亮平"],"groups":["snowman"],"group":"snowman","visited_date":"2025-06-11","source_video_title":"Snow Man【土鍋ごはんを食べよう！】向井康二…和食が恋しい季節","tags":[],"thumbnail_url":"https://img.youtube.com/vi/8R-AlLRghJc/hqdefault.jpg","tabelog_score":3.36,"price_range":"￥2,000～￥2,999","nearest_station":"東京メトロ日比谷線（東急東横線）中目黒駅 徒歩5分"},{"id":"snowman-a9a7c2c5-202502","name":"伊勢屋食堂","genre":"washoku","prefecture":"東京都","city":"新宿区","lat":35.7031,"lng":139.6938,"youtube_id":"1cQeue2ITFU","members":["渡辺翔太","向井康二","阿部亮平","ラウール"],"groups":["snowman","kodoku_no_gurume"],"group":"snowman","visited_date":"2025-02-05","source_video_title":"Snow Man【市場内の食堂で昼メシ】定食ってたまらんね","tags":[],"thumbnail_url":"https://img.youtube.com/vi/1cQeue2ITFU/hqdefault.jpg","nearest_station":"「大久保駅」より徒歩7分","tabelog_score":3.49,"price_range":"-"},{"id":"snowman-09af6680-202605","name":"しゃぶ禅 神楽坂店","genre":"yakiniku","prefecture":"東京都","city":"新宿区","lat":35.7010851,"lng":139.7412287,"youtube_id":"3zyJKBmO2X8","source_video_title":"Snow Man【しゃぶしゃぶを食べよう！】ナベが鍋をチョイス！？","visited_date":"2026-05-06","members":[],"groups":["snowman"],"group":"snowman","nearest_station":"JR「飯田橋駅」西口より徒歩3分地下鉄「飯田橋駅」B3番出口より徒歩1分地下鉄東西線「神楽坂駅」より徒歩7分都営大江戸線「牛込神楽坂駅」より徒歩5分","tags":[],"thumbnail_url":"https://img.youtube.com/vi/3zyJKBmO2X8/hqdefault.jpg","tabelog_score":3.2,"price_range":"￥8,000～￥9,999"},{"id":"snowman-41d7688e-202604","name":"浅草むぎとろ本店","genre":"izakaya","prefecture":"東京都","city":"台東区","lat":35.7111333,"lng":139.7963683,"youtube_id":"GUbWqF2Uj80","source_video_title":"Snow Man【むぎとろを食べたい！】すのちゅーぶ初の飲酒！？","visited_date":"2026-04-15","members":[],"groups":["snowman"],"group":"snowman","nearest_station":"地下鉄銀座線「浅草駅」4番出口より徒歩3分地下鉄浅草線「浅草駅」A3出口より徒歩１分","tags":[],"thumbnail_url":"https://img.youtube.com/vi/GUbWqF2Uj80/hqdefault.jpg","tabelog_score":3.49,"price_range":"￥4,000～￥4,999"},{"id":"snowman-pablo-20241002","name":"Pablo","genre":"shokuji","prefecture":"","city":"","lat":34.6694965,"lng":135.5015898,"youtube_id":"q9xC9ARZrR4","source_video_title":"Snow Man【思い出の味…スペイン料理】バルセロナに到着です","visited_date":"2024-10-02","members":[],"groups":["snowman"],"group":"snowman","nearest_station":"「中目黒駅」より徒歩４分","tags":[],"thumbnail_url":"https://img.youtube.com/vi/q9xC9ARZrR4/hqdefault.jpg","tabelog_score":3.6,"price_range":"￥5,000～￥5,999"},{"id":"snowman-b8d6ca27-202405","name":"キッチン 南国","genre":"shokuji","prefecture":"","city":"","lat":38.4289729,"lng":141.2875937,"youtube_id":"iTskjw-fo_I","source_video_title":"Snow Man【俺たちが大学生だったら…】こんな感じでメシ食うよね！","visited_date":"2024-05-29","members":[],"groups":["snowman"],"group":"snowman","nearest_station":"「早稲田駅」より徒歩5分","tags":[],"thumbnail_url":"https://img.youtube.com/vi/iTskjw-fo_I/hqdefault.jpg","tabelog_score":3.46,"price_range":"～￥999"},{"id":"snowman-d4d93a94-201810","name":"ケーキファクトリー・ホイップ","genre":"sweets","prefecture":"","city":"","lat":35.6326432,"lng":139.5026339,"youtube_id":"JaeKrQ-UHc8","source_video_title":"Snow Man【メンバーの心】以心伝心ゲームで地産スイーツ！","visited_date":"2018-10-17","members":[],"groups":["snowman"],"group":"snowman","nearest_station":"「稲城駅」より徒歩8分","tags":[],"thumbnail_url":"https://img.youtube.com/vi/JaeKrQ-UHc8/hqdefault.jpg","tabelog_score":3.3,"price_range":"-"},{"id":"snowman-mipig-cafe-meguro","name":"mipig cafe 目黒店","genre":"cafe","prefecture":"東京都","city":"目黒区","lat":35.6313577,"lng":139.7035686,"youtube_id":"Qh0RSkK-s4E","source_video_title":"Snow Man【可愛いブタちゃんと触れ合い」そこには癒し愛しかない","visited_date":"2023-07-05","members":[],"groups":["snowman"],"group":"snowman","nearest_station":"目黒駅","price_range":"￥1,000～￥1,999","tags":["カフェ","動物カフェ"],"thumbnail_url":"https://img.youtube.com/vi/Qh0RSkK-s4E/hqdefault.jpg","tabelog_score":3.05},{"id":"snowman-isomaru-jiyugaoka","name":"磯丸水産食堂 自由が丘しらかば通り店","genre":"shokuji","prefecture":"東京都","city":"目黒区","lat":35.6076524,"lng":139.6675582,"youtube_id":"8zvSYQivscg","source_video_title":"Snow Man【絶品海鮮づくし】阿部亮平の食べたいものは？","visited_date":"2019-11-20","members":["阿部亮平"],"groups":["snowman"],"group":"snowman","nearest_station":"自由が丘駅","price_range":"￥2,000～￥2,999","tags":["海鮮","居酒屋"],"thumbnail_url":"https://img.youtube.com/vi/8zvSYQivscg/hqdefault.jpg","tabelog_score":3.08},{"id":"snowman-kushigen-edogawabashi","name":"串焼げん 江戸川橋店","genre":"izakaya","prefecture":"東京都","city":"文京区","lat":35.7095155,"lng":139.7335636,"youtube_id":"hQRDpsQiuZc","source_video_title":"Snow Man 【絶品串焼き】渡辺翔太の食べたいものは？","visited_date":"2019-10-16","members":["渡辺翔太"],"groups":["snowman"],"group":"snowman","nearest_station":"江戸川橋駅","price_range":"￥4,000～￥4,999","tags":["串焼き","居酒屋"],"thumbnail_url":"https://img.youtube.com/vi/hQRDpsQiuZc/hqdefault.jpg","tabelog_score":3.24},{"id":"snowman-captains_grill_and_b-20250429","name":"Captain’s Grill and Bar","genre":"shokuji","prefecture":"神奈川県","city":"川崎市","lat":35.5410017,"lng":139.753172,"youtube_id":"99-SIhGTrYg","source_video_title":"【すのちゅーぶ】羽田空港が見える「川崎キングスカイフロント東急REIホテル₋Captain’s Grill and Bar-」SnowManロケ地","visited_date":"2025-04-29","members":["岩本照","ラウール","深澤辰哉","宮舘涼太","阿部亮平","渡辺翔太","向井康二","目黒蓮","佐久間大介"],"groups":["snowman"],"group":"snowman","nearest_station":"・羽田空港から無料シャトルバス・川崎駅から無料シャトルバス・羽田空港から臨港バス・京急バス「キングスカイフロント（西）」バス停より徒歩3分・京急大師線「小島新田駅」より徒歩15分※詳細はこちら","tags":[],"thumbnail_url":"https://img.youtube.com/vi/99-SIhGTrYg/hqdefault.jpg","source_type":"","tabelog_score":3.36,"price_range":"￥5,000～￥5,999"},{"id":"snowman-64-20250421","name":"6年4組渋谷分校","genre":"shokuji","prefecture":"東京都","city":"渋谷区","lat":35.6620752,"lng":139.6974957,"youtube_id":"1-781WHXnus","source_video_title":"【すのちゅーぶ】給食「6年4組渋谷分校」で食べたメニューは？予約方法は？SnowManロケ地","visited_date":"2025-04-21","members":["岩本照","ラウール","深澤辰哉","宮舘涼太","阿部亮平","渡辺翔太","向井康二","目黒蓮","佐久間大介"],"groups":["snowman"],"group":"snowman","nearest_station":"「渋谷駅」より徒歩4分","tags":[],"thumbnail_url":"https://img.youtube.com/vi/1-781WHXnus/hqdefault.jpg","source_type":"","tabelog_score":3.09,"price_range":"￥2,000～￥2,999"},{"id":"snowman-db5cb4af-20250416","name":"辻利 生八ツ橋","genre":"shokuji","prefecture":"京都府","city":"京都市","lat":35.003,"lng":135.7758,"youtube_id":"2xT3kEy3hjQ","source_video_title":"【すのちゅーぶ】京都でラウールへのお土産を購入したお店はどこ？SnowManロケ地","visited_date":"2025-04-16","members":["岩本照","ラウール","深澤辰哉","宮舘涼太","阿部亮平","渡辺翔太","向井康二","目黒蓮","佐久間大介"],"groups":["snowman"],"group":"snowman","nearest_station":"「祇園四条駅」より徒歩1分","tags":[],"thumbnail_url":"https://img.youtube.com/vi/2xT3kEy3hjQ/hqdefault.jpg","source_type":""},{"id":"snowman-ab957c1f-20250414","name":"京都祇園 天ぷら圓堂 八坂本店（西邸）","genre":"washoku","prefecture":"京都府","city":"京都市","lat":35.0037,"lng":135.7803,"youtube_id":"B1SvucKptGI","source_video_title":"【すのちゅーぶ】京都「天ぷら圓堂 八坂本店」食べたメニュー・予約方法は？SnowManロケ地","visited_date":"2025-04-14","members":["岩本照","ラウール","深澤辰哉","宮舘涼太","阿部亮平","渡辺翔太","向井康二","目黒蓮","佐久間大介"],"groups":["snowman"],"group":"snowman","nearest_station":"「清水道」バス停より徒歩4分","tags":[],"thumbnail_url":"https://img.youtube.com/vi/B1SvucKptGI/hqdefault.jpg","source_type":""},{"id":"snowman-mejirobaro","name":"Baro (ベロ)","genre":"shokuji","group":"snowman","groups":["snowman"],"nearest_station":"「目白駅」より徒歩6分「池袋駅」より徒歩8分","prefecture":"東京都","city":"豊島区","youtube_id":"ZcWG2Ra3RcI","source_video_title":"【すのちゅーぶ】古着屋「Baro (ベロ)」は『あいことば』MVで向井康二・阿部亮平が撮影した場所？SnowManロケ地","visited_date":"2025-07-02","members":["岩本照","ラウール","深澤辰哉","宮舘涼太","阿部亮平","渡辺翔太","向井康二","目黒蓮","佐久間大介"],"tags":[],"lat":35.7284313,"lng":139.7017131,"thumbnail_url":"https://tblg.k-img.com/resize/640x640c/restaurant/images/Rvw/160764/160764311.jpg?token=83883a5&api=v2","tabelog_score":3.39,"price_range":"￥5,000～￥5,999"},{"id":"snowman-machidahuku","name":"Rapace","genre":"shokuji","group":"snowman","groups":["snowman"],"nearest_station":"「町田駅」より徒歩7分","prefecture":"東京都","city":"町田市","youtube_id":"UhK_38vVRCU","source_video_title":"【すのちゅーぶ】フクロウカフェ町田「Rapace」予約方法は？SnowManロケ地","visited_date":"2025-05-08","members":["岩本照","ラウール","深澤辰哉","宮舘涼太","阿部亮平","渡辺翔太","向井康二","目黒蓮","佐久間大介"],"tags":[],"lat":35.5390964,"lng":139.4480922,"thumbnail_url":"https://tblg.k-img.com/resize/640x640c/restaurant/images/Rvw/245071/c3ae92bd598b21d2a4206d8e355642a2.jpg?token=eebcfd2&api=v2","tabelog_score":3.34,"price_range":"￥3,000～￥3,999"},{"id":"snowman-hukagawafuj","name":"深川富士見","genre":"shokuji","group":"snowman","groups":["snowman"],"nearest_station":"「門前仲町駅」より徒歩13分※送迎バスあり","prefecture":"東京都","city":"江東区","youtube_id":"EsGRecRQoZs","source_video_title":"【すのちゅーぶ】東京湾海釣り「深川富士見」予約方法は？作った料理は？SnowManロケ地","visited_date":"2025-05-04","members":["岩本照","ラウール","深澤辰哉","宮舘涼太","阿部亮平","渡辺翔太","向井康二","目黒蓮","佐久間大介"],"tags":[],"lat":35.6680295,"lng":139.7968481,"thumbnail_url":"https://tblg.k-img.com/resize/640x640c/restaurant/images/Rvw/58544/58544918.jpg?token=8484adf&api=v2","tabelog_score":3.28,"price_range":"￥10,000～￥14,999"},{"id":"snowman-tottekiyaya","name":"エブリデイとってき屋東京本店","genre":"shokuji","group":"snowman","groups":["snowman"],"nearest_station":"「草加駅」からバス「井草団地」下車徒歩5分「八潮駅」からバス「井草団地」下車徒歩5分","prefecture":"埼玉県","city":"八潮市","youtube_id":"oYjU9jGyaj4","source_video_title":"【すのちゅーぶ】埼玉県八潮市クレーンゲーム「エブリデイとってき屋東京本店」SnowManロケ地","visited_date":"2025-04-23","members":["岩本照","ラウール","深澤辰哉","宮舘涼太","阿部亮平","渡辺翔太","向井康二","目黒蓮","佐久間大介"],"tags":[],"lat":35.820584,"lng":139.824916},{"id":"snowman-nanasawasou","name":"七沢荘","genre":"shokuji","group":"snowman","groups":["snowman"],"nearest_station":"本厚木駅からバス乗車し「広沢寺温泉入口」下車徒歩7分","prefecture":"神奈川県","city":"厚木市","youtube_id":"rbhT4YRDUFM","source_video_title":"【すのちゅーぶ】神奈川県厚木市「七沢荘」卒業旅行の旅館の予約方法は？日帰り入浴は？SnowManロケ地","visited_date":"2025-04-10","members":["岩本照","ラウール","深澤辰哉","宮舘涼太","阿部亮平","渡辺翔太","向井康二","目黒蓮","佐久間大介"],"tags":[],"lat":35.4510933,"lng":139.2921472},{"id":"snowman-welovedonut-20260513","name":"WeLoveDonut 神楽坂店","genre":"sweets","prefecture":"東京都","city":"新宿区","lat":35.7049,"lng":139.7353,"youtube_id":"p4gDz-rva-8","source_video_title":"【すのちゅーぶ】ドライブ中のドーナツはWeLoveDonut 神楽坂店｜食べたメニューも調査！","visited_date":"2026-05-13","members":["岩本照","ラウール","深澤辰哉","宮舘涼太","阿部亮平","渡辺翔太","向井康二","目黒蓮","佐久間大介"],"groups":["snowman"],"group":"snowman","nearest_station":"「牛込神楽坂駅」より徒歩3分","tags":[],"thumbnail_url":"","source_type":""},{"id":"snowman-c213ff6f-20260331","name":"川京","genre":"shokuji","prefecture":"千葉県","city":"鴨川市","lat":35.1359787,"lng":140.0721374,"youtube_id":"ikroPOOFRA4","source_video_title":"【せっかくグルメ】目黒蓮が千葉県鴨川市で訪れたロケ地まとめ｜SnowMan聖地巡礼","visited_date":"2026-03-31","members":["岩本照","ラウール","深澤辰哉","宮舘涼太","阿部亮平","渡辺翔太","向井康二","目黒蓮","佐久間大介"],"groups":["snowman"],"group":"snowman","nearest_station":"「安房鴨川駅」より徒歩3分","tags":[],"thumbnail_url":"https://tblg.k-img.com/resize/640x640c/restaurant/images/Rvw/318312/217beac0448bdbe93c6e123005390381.jpg?token=35a7475&api=v2","source_type":"","tabelog_score":3.33,"price_range":"￥3,000～￥3,999"},{"id":"snowman-ce2afa7e-20260331","name":"味芳","genre":"shokuji","prefecture":"愛媛県","city":"伊予市","lat":33.7579,"lng":132.7039,"youtube_id":"ih8tKyF5YBs","source_video_title":"【せっかくグルメ】目黒蓮が愛媛県伊予市で訪れたロケ地まとめ｜SnowMan聖地巡礼","visited_date":"2026-03-31","members":["岩本照","ラウール","深澤辰哉","宮舘涼太","阿部亮平","渡辺翔太","向井康二","目黒蓮","佐久間大介"],"groups":["snowman"],"group":"snowman","nearest_station":"JR予讃線「伊予市駅」より徒歩15分伊予鉄道郡中線「郡中港駅」より徒歩15分","tags":[],"thumbnail_url":"https://tblg.k-img.com/resize/640x640c/restaurant/images/Rvw/211098/52d911854cd68e5321be8a481d7ff60a.jpg?token=7a07ba7&api=v2","source_type":"","tabelog_score":3.34,"price_range":"￥3,000～￥3,999"},{"id":"snowman-2b4ef35a-20260129","name":"歩味","genre":"ramen","prefecture":"鳥取県","city":"米子市","lat":35.4985553,"lng":133.2428331,"youtube_id":"gFkiCjZX4f8","source_video_title":"【せっかくグルメ】深澤辰哉・ラウールが米子で訪れたロケ地まとめ｜SnowMan聖地巡礼","visited_date":"2026-01-29","members":["岩本照","ラウール","深澤辰哉","宮舘涼太","阿部亮平","渡辺翔太","向井康二","目黒蓮","佐久間大介"],"groups":["snowman"],"group":"snowman","nearest_station":"「河崎口駅」より徒歩11分","tags":[],"thumbnail_url":"https://tblg.k-img.com/resize/640x640c/restaurant/images/Rvw/352691/d1bced73f0d9acd79f5d7edc3896a4cf.jpg?token=879eed8&api=v2","source_type":"","tabelog_score":3.32,"price_range":"～￥999"},{"id":"snowman-f3cfa938-20260129","name":"味処あらし","genre":"shokuji","prefecture":"徳島県","city":"鳴門市","lat":34.1874529,"lng":134.6080649,"youtube_id":"yLGtdFm5xGI","source_video_title":"【せっかくグルメ】目黒蓮が徳島・鳴門で訪れたロケ地まとめ｜SnowMan聖地巡礼","visited_date":"2026-01-29","members":["岩本照","ラウール","深澤辰哉","宮舘涼太","阿部亮平","渡辺翔太","向井康二","目黒蓮","佐久間大介"],"groups":["snowman"],"group":"snowman","nearest_station":"JR「鳴門駅」より徒歩20分またはタクシー5分","tags":[],"thumbnail_url":"https://tblg.k-img.com/resize/640x640c/restaurant/images/Rvw/287488/5cd90af058c40cd1d6f7e2001d9b2c53.jpg?token=a1ffb10&api=v2","source_type":"","tabelog_score":3.65,"price_range":"￥4,000～￥4,999"},{"id":"snowman-e4da675e-20251011","name":"フェイクマミー","genre":"izakaya","prefecture":"東京都","city":"豊島区","lat":35.7353,"lng":139.7129,"youtube_id":"_dFWD5XN6sA","source_video_title":"【フェイクマミー】SnowMan向井康二出演ロケ地まとめ","visited_date":"2025-10-11","members":["岩本照","ラウール","深澤辰哉","宮舘涼太","阿部亮平","渡辺翔太","向井康二","目黒蓮","佐久間大介"],"groups":["snowman"],"group":"snowman","nearest_station":"「池袋駅」西口より徒歩3分","tags":[],"thumbnail_url":"https://tblg.k-img.com/images/no_photo_350x350.gif","source_type":"","price_range":"￥3,000～￥3,999"},{"id":"snowman-d1966575-20251119","name":"カフェ 武甲庵","genre":"cafe","prefecture":"埼玉県","city":"秩父市","lat":35.9911271,"lng":139.088232,"youtube_id":"aWgNt0-1LCk","source_video_title":"西武鉄道特急ラビューでSnowMan岩本照が秩父旅へ！聖地巡礼用にロケ地調査","visited_date":"2025-11-19","members":["岩本照","ラウール","深澤辰哉","宮舘涼太","阿部亮平","渡辺翔太","向井康二","目黒蓮","佐久間大介"],"groups":["snowman"],"group":"snowman","nearest_station":"「御花畑駅」より徒歩3分「西武秩父駅」より徒歩7分","tags":[],"thumbnail_url":"","source_type":""},{"id":"snowman-jelly_jelly_cafe-20250320","name":"JELLY JELLY CAFE 渋谷本店","genre":"cafe","prefecture":"東京都","city":"渋谷区","lat":35.6691,"lng":139.689,"youtube_id":"siVHcoKNfY4","source_video_title":"【すのちゅーぶ】渋谷ボードゲームカフェ「JELLY JELLY CAFE」SnowManロケ地","visited_date":"2025-03-20","members":["岩本照","ラウール","深澤辰哉","宮舘涼太","阿部亮平","渡辺翔太","向井康二","目黒蓮","佐久間大介"],"groups":["snowman"],"group":"snowman","nearest_station":"「渋谷駅」より徒歩7分","tags":[],"thumbnail_url":"","source_type":""},{"id":"snowman-d82827ef-20250213","name":"横浜大飯店","genre":"shokuji","prefecture":"神奈川県","city":"横浜市","lat":35.4436,"lng":139.6474,"youtube_id":"4FAQu3t8Bh8","source_video_title":"【ウワサのお客さま】SnowMan渡辺翔太と宮舘涼太が中華街「横浜大飯店」で食べたメニューは？ゆり組大食い企画","visited_date":"2025-02-13","members":["岩本照","ラウール","深澤辰哉","宮舘涼太","阿部亮平","渡辺翔太","向井康二","目黒蓮","佐久間大介"],"groups":["snowman"],"group":"snowman","nearest_station":"「石川町駅」（中華街出口）より徒歩6分「元町・中華街駅」（2番出口）より徒歩10分","tags":[],"thumbnail_url":"https://tblg.k-img.com/resize/640x640c/restaurant/images/Rvw/6311/6311665.jpg?token=6fb2729&api=v2","source_type":"","tabelog_score":3.49,"price_range":"￥4,000～￥4,999"},{"id":"snowman-31f972f7-20260506","name":"しゃぶ禅神楽坂店","genre":"yakiniku","prefecture":"東京都","city":"新宿区","lat":35.7010851,"lng":139.7412287,"youtube_id":"3zyJKBmO2X8","source_video_title":"【すのちゅーぶ】しゃぶ禅神楽坂店｜予約方法・食べたメニューまとめ","visited_date":"2026-05-06","members":["岩本照","ラウール","深澤辰哉","宮舘涼太","阿部亮平","渡辺翔太","向井康二","目黒蓮","佐久間大介"],"groups":["snowman"],"group":"snowman","nearest_station":"JR「飯田橋駅」西口より徒歩3分地下鉄「飯田橋駅」B3番出口より徒歩1分地下鉄東西線「神楽坂駅」より徒歩7分都営大江戸線「牛込神楽坂駅」より徒歩5分","tags":[],"thumbnail_url":"https://tblg.k-img.com/resize/640x640c/restaurant/images/Rvw/110443/110443379.jpg?token=9dc5053&api=v2","source_type":"","tabelog_score":3.2,"price_range":"￥8,000～￥9,999"},{"id":"snowman-flat-20260506","name":"馬場FLAT","genre":"shokuji","prefecture":"東京都","city":"新宿区","lat":35.7046389,"lng":139.7052761,"youtube_id":"","source_video_title":"Snow Man阿部亮平【ZIP!】パン屋情報まとめ｜馬場FLAT明太フランス・コーヒーアンドトースト","visited_date":"2026-05-06","members":["岩本照","ラウール","深澤辰哉","宮舘涼太","阿部亮平","渡辺翔太","向井康二","目黒蓮","佐久間大介"],"groups":["snowman"],"group":"snowman","nearest_station":"「高田馬場駅」より徒歩7分「西早稲田駅」より徒歩7分","tags":[],"thumbnail_url":"https://image.tmdb.org/t/p/w500/jubZAwFlffMPxwYU55YWCphK7ze.jpg","source_type":""},{"id":"snowman-anea_cafe-20250523","name":"ANEA CAFE","genre":"shokuji","prefecture":"東京都","city":"目黒区","lat":35.6566832,"lng":139.6868033,"youtube_id":"","source_video_title":"【それスノ】木梨憲武バスツアーまとめ：サーキット、うなぎ、カフェ：SnowManロケ地","visited_date":"2025-05-23","members":["岩本照","ラウール","深澤辰哉","宮舘涼太","阿部亮平","渡辺翔太","向井康二","目黒蓮","佐久間大介"],"groups":["snowman"],"group":"snowman","nearest_station":"京王井の頭線「神泉駅」より徒歩9分京王井の頭線「駒場東大前駅」より徒歩10分東急田園都市線「池尻大橋駅」より徒歩12分","tags":[],"thumbnail_url":"https://image.tmdb.org/t/p/w500/bPibVMymeObVvRCtlkaO3indEtY.jpg","source_type":""},{"id":"snowman-ginza_cafe-20260328","name":"GINZA CAFE","genre":"shokuji","prefecture":"東京都","city":"中央区","lat":35.6720135,"lng":139.7647202,"youtube_id":"","source_video_title":"【ヒロミのおせっ買い】SnowMan佐久間大介が訪れたロケ地・買ったものまとめ","visited_date":"2026-03-28","members":["岩本照","ラウール","深澤辰哉","宮舘涼太","阿部亮平","渡辺翔太","向井康二","目黒蓮","佐久間大介"],"groups":["snowman"],"group":"snowman","nearest_station":"「有楽町駅」より徒歩3分「銀座1丁目駅」より徒歩1分「京橋駅」より徒歩4分","tags":[],"thumbnail_url":"https://tblg.k-img.com/resize/640x640c/restaurant/images/Rvw/206743/31875ce0727bf6b24435590a6b985606.jpg?token=25e4ac8&api=v2","source_type":""},{"id":"snowman-e7d2545a-20260323","name":"日光東照宮","genre":"shokuji","prefecture":"栃木県","city":"日光市","lat":36.7576378,"lng":139.59911,"youtube_id":"","source_video_title":"日光【中島・重岡・岩本の仲良しトリオ旅 大使になりたいッ!】ロケ地を調査！","visited_date":"2026-03-23","members":["岩本照","ラウール","深澤辰哉","宮舘涼太","阿部亮平","渡辺翔太","向井康二","目黒蓮","佐久間大介"],"groups":["snowman"],"group":"snowman","nearest_station":"JR日光線「日光駅」・東武日光線「東武日光駅」から世界遺産めぐりバス乗車約10分","tags":[],"thumbnail_url":"https://tblg.k-img.com/resize/640x640c/restaurant/images/Rvw/228291/307ce174469f46356f5334f91afbfdad.jpg?token=ed58553&api=v2","source_type":"","price_range":"-"},{"id":"snowman-0ec0d359-20260303","name":"ザ・ミーツ マリーナテラス","genre":"shokuji","prefecture":"千葉県","city":"千葉市","lat":35.6021962,"lng":140.0998638,"youtube_id":"WdDaB4GFIJQ","source_video_title":"映画【マッチング TRUE LOVE】佐久間大介出演シーンのロケ地｜SnowMan聖地巡礼","visited_date":"2026-03-03","members":["岩本照","ラウール","深澤辰哉","宮舘涼太","阿部亮平","渡辺翔太","向井康二","目黒蓮","佐久間大介"],"groups":["snowman"],"group":"snowman","nearest_station":"JR京葉線/千葉都市モノレール「千葉みなと駅」より徒歩7分JR各線「千葉駅」「京成線千葉駅」より10分","tags":[],"thumbnail_url":"","source_type":""},{"id":"snowman-06c3b677-20260211","name":"フレンチレストラン 『帝國食堂』","genre":"shokuji","prefecture":"東京都","city":"港区","lat":35.6600266,"lng":139.7238075,"youtube_id":"8j6glqZxVzU","source_video_title":"【すのちゅーぶ】麻布六本木フレンチ『帝國食堂』","visited_date":"2026-02-11","members":["岩本照","ラウール","深澤辰哉","宮舘涼太","阿部亮平","渡辺翔太","向井康二","目黒蓮","佐久間大介"],"groups":["snowman"],"group":"snowman","nearest_station":"千代田線「乃木坂駅」より徒歩9分日比谷線「六本木駅」より徒歩13分","tags":[],"thumbnail_url":"https://tblg.k-img.com/resize/640x640c/restaurant/images/Rvw/35339/35339528.jpg?token=3c00f87&api=v2","source_type":""},{"id":"snowman-cedar_the_chop_house-20260208","name":"CEDAR THE CHOP HOUSE＆BAR","genre":"shokuji","prefecture":"東京都","city":"港区","lat":35.6642481,"lng":139.7279271,"youtube_id":"","source_video_title":"【SnowMan聖地巡礼】阿部亮平『あなたを奪ったその日から』ロケ地・六本木のバーCEDARでランチ","visited_date":"2026-02-08","members":["岩本照","ラウール","深澤辰哉","宮舘涼太","阿部亮平","渡辺翔太","向井康二","目黒蓮","佐久間大介"],"groups":["snowman"],"group":"snowman","nearest_station":"日比谷線「六本木駅」4a出口より徒歩1分大江戸線「六本木駅」7番出口より徒歩1分","tags":[],"thumbnail_url":"https://image.tmdb.org/t/p/w500/UkGkMqQWhg3MaqKO5tfdcFHD29.jpg","source_type":""},{"id":"snowman-815e73d7-20250507","name":"東京ミステリーサーカス","genre":"shokuji","prefecture":"東京都","city":"新宿区","lat":35.6945429,"lng":139.7027105,"youtube_id":"di1PZDjtQKQ","source_video_title":"【すのちゅーぶ】新宿脱出ゲーム「東京ミステリーサーカス」予約方法は？体験したゲームはどれ？SnowManロケ地","visited_date":"2025-05-07","members":["岩本照","ラウール","深澤辰哉","宮舘涼太","阿部亮平","渡辺翔太","向井康二","目黒蓮","佐久間大介"],"groups":["snowman"],"group":"snowman","nearest_station":"「新宿駅」より徒歩7分「西武新宿駅」より徒歩2分「新宿三丁目駅」より徒歩10分","tags":[],"thumbnail_url":"https://tblg.k-img.com/resize/640x640c/restaurant/images/Rvw/98031/98031870.jpg?token=cb2a87c&api=v2","source_type":"","tabelog_score":3.46,"price_range":"￥8,000～￥9,999"},{"id":"snowman-de82a28d-20260124","name":"日比谷パレス","genre":"shokuji","prefecture":"東京都","city":"千代田区","lat":35.674041,"lng":139.7563205,"youtube_id":"","source_video_title":"【ゴチになります】SnowMan渡辺翔太「日比谷パレス」で食べたプロヴァンス料理メニュー・予約方法","visited_date":"2026-01-24","members":["岩本照","ラウール","深澤辰哉","宮舘涼太","阿部亮平","渡辺翔太","向井康二","目黒蓮","佐久間大介"],"groups":["snowman"],"group":"snowman","nearest_station":"「霞ヶ関駅」より徒歩2分「日比谷駅」より徒歩3分「有楽町駅」より徒歩7分","tags":[],"thumbnail_url":"https://image.tmdb.org/t/p/w500/3pT7luuMLOrgJ0650hOtZg9iZFM.jpg","source_type":""},{"id":"snowman-6dc19258-20260123","name":"トークィーンズ事前インタビュー 『バビーズ ニューヨーク アークヒルズ』","genre":"shokuji","prefecture":"東京都","city":"港区","lat":35.6716786,"lng":139.7356224,"youtube_id":"","source_video_title":"目黒蓮【トークィーンズ】事前インタビューロケ地は「バビーズ ニューヨーク アークヒルズ」｜SnowMan聖地巡礼","visited_date":"2026-01-23","members":["岩本照","ラウール","深澤辰哉","宮舘涼太","阿部亮平","渡辺翔太","向井康二","目黒蓮","佐久間大介"],"groups":["snowman"],"group":"snowman","nearest_station":"「六本木一丁目駅」より徒歩1分、「六本木駅」より徒歩10分","tags":[],"thumbnail_url":"https://image.tmdb.org/t/p/w500/pR10it0INbK5xtZhYofpWTRs4wl.jpg","source_type":""},{"id":"snowman-tooth_tooth_tokyo-20260123","name":"トークィーンズ事前インタビュー 『TOOTH TOOTH TOKYO』","genre":"shokuji","prefecture":"東京都","city":"渋谷区","lat":35.6531376,"lng":139.7114585,"youtube_id":"","source_video_title":"岩本照【トークィーンズ】事前インタビューロケ地は「TOOTH TOOTH TOKYO」｜SnowMan聖地巡礼","visited_date":"2026-01-23","members":["岩本照","ラウール","深澤辰哉","宮舘涼太","阿部亮平","渡辺翔太","向井康二","目黒蓮","佐久間大介"],"groups":["snowman"],"group":"snowman","nearest_station":"「恵比寿駅」より徒歩3分","tags":[],"thumbnail_url":"https://image.tmdb.org/t/p/w500/pR10it0INbK5xtZhYofpWTRs4wl.jpg","source_type":""},{"id":"snowman-9a5cc795-20250924","name":"薬膳キッチンやくぜんや","genre":"washoku","prefecture":"東京都","city":"渋谷区","lat":35.6483517,"lng":139.7065258,"youtube_id":"GpPJOgdEbhE","source_video_title":"【すのちゅーぶ】薬膳料理・恵比寿やくぜんやで食べたメニューは？座った席は？ロケ地調査","visited_date":"2025-09-24","members":["岩本照","ラウール","深澤辰哉","宮舘涼太","阿部亮平","渡辺翔太","向井康二","目黒蓮","佐久間大介"],"groups":["snowman"],"group":"snowman","nearest_station":"「恵比寿駅」より徒歩2分","tags":[],"thumbnail_url":"https://tblg.k-img.com/resize/640x640c/restaurant/images/Rvw/295399/44a3fb78972d06170b215dfe66f4e096.jpg?token=e9ad360&api=v2","source_type":"","tabelog_score":3.4,"price_range":"￥4,000～￥4,999"},{"id":"snowman-4bbce411-20260116","name":"ラウール","genre":"shokuji","prefecture":"神奈川県","city":"川崎市","lat":35.5732659,"lng":139.4840407,"youtube_id":"WkMg7fS_0X4","source_video_title":"【それスノ】川崎No.1グルメ『モナリザン』＆訪れたロケ地まとめ｜SnowMan聖地巡礼","visited_date":"2026-01-16","members":["岩本照","ラウール","深澤辰哉","宮舘涼太","阿部亮平","渡辺翔太","向井康二","目黒蓮","佐久間大介"],"groups":["snowman"],"group":"snowman","nearest_station":"JR各線「川崎駅」東口より徒歩6分京急本線・大師線「京急川崎駅」中央口より徒歩6分","tags":[],"thumbnail_url":"https://tblg.k-img.com/resize/640x640c/restaurant/images/Rvw/341706/2d319f5c2dc8dd5a7c12f82b6b721a04.jpg?token=32bd865&api=v2","source_type":"","tabelog_score":3.42,"price_range":"～￥999"},{"id":"snowman-kihachi-20250128","name":"KIHACHI 青山本店","genre":"shokuji","prefecture":"東京都","city":"港区","lat":35.6705999,"lng":139.7159289,"youtube_id":"","source_video_title":"【トークィーンズ】宮舘涼太ロケ地調査：デートで訪れたスーパー・イルミネーションはどこ？","visited_date":"2025-01-28","members":["岩本照","ラウール","深澤辰哉","宮舘涼太","阿部亮平","渡辺翔太","向井康二","目黒蓮","佐久間大介"],"groups":["snowman"],"group":"snowman","nearest_station":"「外苑前駅」（4a出口）より徒歩2分「青山一丁目駅」（1出口）より徒歩4分","tags":[],"thumbnail_url":"https://image.tmdb.org/t/p/w500/pR10it0INbK5xtZhYofpWTRs4wl.jpg","source_type":""},{"id":"snowman-69eda10a-20260116","name":"阿部亮平朝ごはんのたこ焼き 『甲賀流』","genre":"shokuji","prefecture":"大阪府","city":"大阪市","lat":34.6707697,"lng":135.4986138,"youtube_id":"","source_video_title":"【ZIP!】阿部亮平と一緒に朝ごはんin大阪のたこ焼きは甲賀流｜SnowManロケ地","visited_date":"2026-01-16","members":["岩本照","ラウール","深澤辰哉","宮舘涼太","阿部亮平","渡辺翔太","向井康二","目黒蓮","佐久間大介"],"groups":["snowman"],"group":"snowman","nearest_station":"「四ツ橋」駅（5番出口）より徒歩2分「心斎橋」駅（7番出口）より徒歩5分","tags":[],"thumbnail_url":"https://image.tmdb.org/t/p/w500/jubZAwFlffMPxwYU55YWCphK7ze.jpg","source_type":""},{"id":"snowman-d39a5b60-20241205","name":"銀のくら","genre":"shokuji","prefecture":"愛知県","city":"名古屋市","lat":35.1804045,"lng":136.9106569,"youtube_id":"","source_video_title":"【ケータリング】ラーメン「銀のくら」SnowMan RAYSツアー名古屋","visited_date":"2024-12-05","members":["岩本照","ラウール","深澤辰哉","宮舘涼太","阿部亮平","渡辺翔太","向井康二","目黒蓮","佐久間大介"],"groups":["snowman"],"group":"snowman","nearest_station":"「高岳駅」より徒歩約10分","tags":[],"thumbnail_url":"https://tblg.k-img.com/resize/640x640c/restaurant/images/Rvw/317838/61e78aa08a79ced52ec8419d08cb2a9a.jpg?token=02f4b41&api=v2","source_type":""},{"id":"snowman-3b3867c5-20260107","name":"おそ松さん","genre":"shokuji","prefecture":"栃木県","city":"宇都宮市","lat":36.5601182,"lng":139.8848042,"youtube_id":"","source_video_title":"【実写映画おそ松さん】ロケ地まとめ：SnowMan聖地巡礼","visited_date":"2026-01-07","members":["岩本照","ラウール","深澤辰哉","宮舘涼太","阿部亮平","渡辺翔太","向井康二","目黒蓮","佐久間大介"],"groups":["snowman"],"group":"snowman","nearest_station":"「東武宇都宮駅」より徒歩7分JR「宇都宮駅」より徒歩18分又はバスで10分","tags":[],"thumbnail_url":"https://image.tmdb.org/t/p/w500/cclQpHoFTuR3rCw2KfJEmIJAb0k.jpg","source_type":""},{"id":"snowman-e551e03d-20251229","name":"中日ビル","genre":"shokuji","prefecture":"愛知県","city":"名古屋市","lat":35.1682532,"lng":136.9096674,"youtube_id":"","source_video_title":"【せっかくグルメ】名古屋で阿部亮平＆櫻井翔が初ロケ！SnowMan聖地巡礼","visited_date":"2025-12-29","members":["岩本照","ラウール","深澤辰哉","宮舘涼太","阿部亮平","渡辺翔太","向井康二","目黒蓮","佐久間大介"],"groups":["snowman"],"group":"snowman","nearest_station":"地下鉄東山線・名城線「栄駅」直結名鉄瀬戸線「栄町駅」直結","tags":[],"thumbnail_url":"https://image.tmdb.org/t/p/w500/f5qmqikojUENAhx44bECNMsFmBK.jpg","source_type":""},{"id":"snowman-roju_nakameguro-20250121","name":"【岩本照】ROJU NAKAMEGURO","genre":"shokuji","prefecture":"東京都","city":"目黒区","lat":35.6441395,"lng":139.6988317,"youtube_id":"oNwT7i2IlbM","source_video_title":"【MVロケ地】SnowMan「Dear,」ロケ地まとめ：カフェ、ホーム","visited_date":"2025-01-21","members":["岩本照","ラウール","深澤辰哉","宮舘涼太","阿部亮平","渡辺翔太","向井康二","目黒蓮","佐久間大介"],"groups":["snowman"],"group":"snowman","nearest_station":"「中目黒駅」より徒歩6分","tags":[],"thumbnail_url":"","source_type":""},{"id":"snowman-ginza_sushi_banya_ka-20251216","name":"銀座の寿司屋 GINZA SUSHI BANYA KAI","genre":"washoku","prefecture":"東京都","city":"中央区","lat":35.6720135,"lng":139.7647202,"youtube_id":"5TbjbC6I9vY","source_video_title":"【すのちゅーぶ】銀座の寿司屋はどこ？｜サンシャインドリーマーSnowManラウール・渡辺翔太・向井康二","visited_date":"2025-12-16","members":["岩本照","ラウール","深澤辰哉","宮舘涼太","阿部亮平","渡辺翔太","向井康二","目黒蓮","佐久間大介"],"groups":["snowman"],"group":"snowman","nearest_station":"「銀座1丁目駅」より徒歩1分「有楽町駅」より徒歩3分","tags":[],"thumbnail_url":"https://tblg.k-img.com/resize/640x640c/restaurant/images/Rvw/263764/4b5bf4476d2e6c64f810008aba1b89bc.jpg?token=361a617&api=v2","source_type":""},{"id":"snowman-factory-20251209","name":"ーンズ事前インタビューのカフェ 渋谷『factory』","genre":"cafe","prefecture":"東京都","city":"渋谷区","lat":35.6585367,"lng":139.6991599,"youtube_id":"","source_video_title":"【トークィーンズ】渡辺翔太インタビューのカフェは渋谷factory｜SnowManロケ地","visited_date":"2025-12-09","members":["岩本照","ラウール","深澤辰哉","宮舘涼太","阿部亮平","渡辺翔太","向井康二","目黒蓮","佐久間大介"],"groups":["snowman"],"group":"snowman","nearest_station":"「渋谷駅」東口より徒歩8分「表参道駅」B1出口より徒歩8分","tags":[],"thumbnail_url":"https://image.tmdb.org/t/p/w500/pR10it0INbK5xtZhYofpWTRs4wl.jpg","source_type":""},{"id":"snowman-pica-20251203","name":"PICA富士西湖","genre":"shokuji","prefecture":"山梨県","city":"","lat":35.4985177,"lng":138.6853744,"youtube_id":"bHRnkPGqALw","source_video_title":"【それスノ】キャンプ企画！PICA富士西湖で写真・キャンプ飯・告白対決｜SnowManロケ地","visited_date":"2025-12-03","members":["岩本照","ラウール","深澤辰哉","宮舘涼太","阿部亮平","渡辺翔太","向井康二","目黒蓮","佐久間大介"],"groups":["snowman"],"group":"snowman","nearest_station":"バス：富士急行線「河口湖駅」下車→ 「河口湖駅」より＜路線バス：西湖民宿行き＞または＜西湖・青木ヶ原周遊バス＞で、「西湖民宿」下車徒歩1分","tags":[],"thumbnail_url":"https://tblg.k-img.com/resize/640x640c/restaurant/images/Rvw/84523/d29eca3065ffca76650994c0c178ea76.jpg?token=7c90c60&api=v2","source_type":"","tabelog_score":3.01,"price_range":"-"},{"id":"snowman-f88f8345-20250729","name":"くら寿司 グローバル旗艦店 原宿","genre":"yakiniku","prefecture":"東京都","city":"渋谷区","lat":35.6692039,"lng":139.7072847,"youtube_id":"","source_video_title":"【ZIP!キテルネ】SnowMan阿部亮平がくら寿司原宿店で裏技注文！お店情報と食べたメニューまとめ：ロケ地調査","visited_date":"2025-07-29","members":["岩本照","ラウール","深澤辰哉","宮舘涼太","阿部亮平","渡辺翔太","向井康二","目黒蓮","佐久間大介"],"groups":["snowman"],"group":"snowman","nearest_station":"「原宿駅」より徒歩8分「明治神宮前駅」より徒歩5分","tags":[],"thumbnail_url":"https://image.tmdb.org/t/p/w500/jubZAwFlffMPxwYU55YWCphK7ze.jpg","source_type":""},{"id":"snowman-402afb97-20250826","name":"それスノ","genre":"shokuji","prefecture":"東京都","city":"江戸川区","lat":35.6402287,"lng":139.8755235,"youtube_id":"paI_Qmr6zVs","source_video_title":"【それスノ】「ナミダの海を越えて行け」ロケ地は大森ベルポートと葛西臨海公園｜SnowManの聖地巡礼","visited_date":"2025-08-26","members":["岩本照","ラウール","深澤辰哉","宮舘涼太","阿部亮平","渡辺翔太","向井康二","目黒蓮","佐久間大介"],"groups":["snowman"],"group":"snowman","nearest_station":"・電車：JR京葉線「葛西臨海公園駅」から徒歩11分・水上バス：「葛西臨海公園」下船","tags":[],"thumbnail_url":"https://tblg.k-img.com/resize/640x640c/restaurant/images/Rvw/354205/cd42987a3a5f5394f74116ec04d890fc.jpg?token=3fd5c40&api=v2","source_type":"","tabelog_score":3.68,"price_range":"-"},{"id":"snowman-okutama-20250902","name":"OKUTAMA＋","genre":"shokuji","prefecture":"東京都","city":"西多摩郡奥多摩町","lat":35.8100778,"lng":139.0954588,"youtube_id":"iymfDPJEDzE","source_video_title":"【それスノ】それスノ学園ロケ地の中学校は『OKUTAMA＋』SnowMan聖地巡礼","visited_date":"2025-09-02","members":["岩本照","ラウール","深澤辰哉","宮舘涼太","阿部亮平","渡辺翔太","向井康二","目黒蓮","佐久間大介"],"groups":["snowman"],"group":"snowman","nearest_station":"JR青梅線「川井駅」より徒歩13分","tags":[],"thumbnail_url":"https://tblg.k-img.com/resize/640x640c/restaurant/images/Rvw/46295/46295145.jpg?token=c518dc3&api=v2","source_type":"","tabelog_score":3.52,"price_range":"￥1,000～￥1,999"},{"id":"snowman-4aa94526-20250902","name":"スーパーアキダイ関町本店","genre":"shokuji","prefecture":"東京都","city":"練馬区","lat":35.7277517,"lng":139.5729792,"youtube_id":"Zk3Hv_-01JU","source_video_title":"【それスノ】目黒蓮スーパーアキダイ関町本店ロケ地まとめ｜SnowMan他の職業でガチ査定企画","visited_date":"2025-09-02","members":["岩本照","ラウール","深澤辰哉","宮舘涼太","阿部亮平","渡辺翔太","向井康二","目黒蓮","佐久間大介"],"groups":["snowman"],"group":"snowman","nearest_station":"西武新宿線「武蔵関駅」より徒歩5分","tags":[],"thumbnail_url":"https://tblg.k-img.com/resize/640x640c/restaurant/images/Rvw/295012/32358052c37ad0871bc1d4174c43ffc1.jpg?token=2059544&api=v2","source_type":"","tabelog_score":3.04,"price_range":"～￥999"},{"id":"snowman-1string-20250902","name":"新木場1stRING","genre":"shokuji","prefecture":"東京都","city":"江東区","lat":35.6459052,"lng":139.8266597,"youtube_id":"Zk3Hv_-01JU","source_video_title":"【それスノ】岩本照プロレス「新木場1stRING」ロケ地まとめ｜SnowManが他の職業でガチ査定企画","visited_date":"2025-09-02","members":["岩本照","ラウール","深澤辰哉","宮舘涼太","阿部亮平","渡辺翔太","向井康二","目黒蓮","佐久間大介"],"groups":["snowman"],"group":"snowman","nearest_station":"「新木場駅」より徒歩1分","tags":[],"thumbnail_url":"https://tblg.k-img.com/resize/640x640c/restaurant/images/Rvw/356436/c05a04a0ae39ee8be62774c3704fb723.jpg?token=3b4c07d&api=v2","source_type":"","tabelog_score":3.07,"price_range":"～￥999"},{"id":"snowman-24-20250905","name":"恋する警護24時","genre":"shokuji","prefecture":"東京都","city":"港区","lat":35.6611721,"lng":139.7258364,"youtube_id":"","source_video_title":"【恋する警護24時】岩本照出演シーンのロケ地まとめ｜SnowMan聖地巡礼","visited_date":"2025-09-05","members":["岩本照","ラウール","深澤辰哉","宮舘涼太","阿部亮平","渡辺翔太","向井康二","目黒蓮","佐久間大介"],"groups":["snowman"],"group":"snowman","nearest_station":"「六本木駅」より徒歩10分","tags":[],"thumbnail_url":"https://image.tmdb.org/t/p/w500/lkszfRYZZozjh0XDNRSHjbN5AyT.jpg","source_type":""},{"id":"snowman-8ce97f07-20250914","name":"都内変装企画概要","genre":"shokuji","prefecture":"東京都","city":"江東区","lat":35.6501423,"lng":139.7931179,"youtube_id":"","source_video_title":"【それスノ】Snow Manが都内に変装して出没！見つかったら即アウト企画ロケ地まとめ","visited_date":"2025-09-14","members":["岩本照","ラウール","深澤辰哉","宮舘涼太","阿部亮平","渡辺翔太","向井康二","目黒蓮","佐久間大介"],"groups":["snowman"],"group":"snowman","nearest_station":"「新豊洲駅」より徒歩1分「豊洲駅」（北口）より徒歩10分","tags":[],"thumbnail_url":"https://image.tmdb.org/t/p/w500/bPibVMymeObVvRCtlkaO3indEtY.jpg","source_type":""},{"id":"snowman-a39d9fa6-20250925","name":"岩本照×佐野市","genre":"shokuji","prefecture":"栃木県","city":"宇都宮市","lat":36.560781,"lng":139.909864,"youtube_id":"f9_ksOPkvJM","source_video_title":"【それスノ】栃木変装ミッション全ロケ地まとめ：SnowMan聖地巡礼","visited_date":"2025-09-25","members":["岩本照","ラウール","深澤辰哉","宮舘涼太","阿部亮平","渡辺翔太","向井康二","目黒蓮","佐久間大介"],"groups":["snowman"],"group":"snowman","nearest_station":"JR「宇都宮駅」東口より徒歩16分","tags":[],"thumbnail_url":"","source_type":""},{"id":"snowman-jr-20251002","name":"JR東海全面協力！","genre":"shokuji","prefecture":"東京都","city":"中央区","lat":35.6799658,"lng":139.7696846,"youtube_id":"FmH-L6P-3FY","source_video_title":"【それスノ】阿部亮平×立入禁止 JR東海全面協力！東京駅と大井車両基地｜SnowManロケ地調査","visited_date":"2025-10-02","members":["岩本照","ラウール","深澤辰哉","宮舘涼太","阿部亮平","渡辺翔太","向井康二","目黒蓮","佐久間大介"],"groups":["snowman"],"group":"snowman","nearest_station":"東京駅八重洲口よりすぐ","tags":[],"thumbnail_url":"","source_type":""},{"id":"snowman-4e3ad8a5-20251029","name":"地球してるぜ","genre":"shokuji","prefecture":"東京都","city":"大田区","lat":35.5665635,"lng":139.7126357,"youtube_id":"XNlUv49zbTs","source_video_title":"【地球してるぜ】宮舘涼太×佐久間大介MVロケ地まとめ｜SnowMan聖地巡礼","visited_date":"2025-10-29","members":["岩本照","ラウール","深澤辰哉","宮舘涼太","阿部亮平","渡辺翔太","向井康二","目黒蓮","佐久間大介"],"groups":["snowman"],"group":"snowman","nearest_station":"各線「蒲田駅」直結","tags":[],"thumbnail_url":"","source_type":""},{"id":"snowman-d84c64da-20251125","name":"お台場","genre":"shokuji","prefecture":"東京都","city":"江戸川区","lat":35.64762,"lng":139.8579782,"youtube_id":"","source_video_title":"【ウルトラタクシー】SnowMan目黒蓮が木村拓哉と訪れたロケ地｜聖地巡礼","visited_date":"2025-11-25","members":["岩本照","ラウール","深澤辰哉","宮舘涼太","阿部亮平","渡辺翔太","向井康二","目黒蓮","佐久間大介"],"groups":["snowman"],"group":"snowman","nearest_station":"「葛西臨海公園駅」より徒歩15分","tags":[],"thumbnail_url":"https://tblg.k-img.com/resize/640x640c/restaurant/images/Rvw/50059/50059660.jpg?token=8ad659d&api=v2","source_type":"","tabelog_score":3.18,"price_range":"￥30,000～￥39,999"},{"id":"snowman-7af9e85b-20251124","name":"トンデミ平和島","genre":"shokuji","prefecture":"東京都","city":"大田区","lat":35.5858778,"lng":139.7406596,"youtube_id":"","source_video_title":"【櫻井・有吉THE夜会】SnowMan深澤辰哉と河合郁人が訪れたロケ地まとめ｜聖地巡礼","visited_date":"2025-11-24","members":["岩本照","ラウール","深澤辰哉","宮舘涼太","阿部亮平","渡辺翔太","向井康二","目黒蓮","佐久間大介"],"groups":["snowman"],"group":"snowman","nearest_station":"「大森駅」よりワンコインバス「平和島駅」よりワンコインバス「大井町駅」より京浜急行バス","tags":[],"thumbnail_url":"https://image.tmdb.org/t/p/w500/qcDrGB7ziALExp2bCA7p7YMCLL0.jpg","source_type":""},{"id":"snowman-20346e0a-20251120","name":"喜多院","genre":"shokuji","prefecture":"埼玉県","city":"川越市","lat":35.928636,"lng":139.484022,"youtube_id":"","source_video_title":"【せっかくグルメ】佐久間大介が川越で訪れたロケ地｜SnowMan聖地巡礼","visited_date":"2025-11-20","members":["岩本照","ラウール","深澤辰哉","宮舘涼太","阿部亮平","渡辺翔太","向井康二","目黒蓮","佐久間大介"],"groups":["snowman"],"group":"snowman","nearest_station":"JR「川越駅」東口よりバス10分","tags":[],"thumbnail_url":"https://image.tmdb.org/t/p/w500/f5qmqikojUENAhx44bECNMsFmBK.jpg","source_type":""},{"id":"snowman-81e49d34-20251118","name":"中華麺舗 虎","genre":"shokuji","prefecture":"東京都","city":"大田区","lat":35.5639836,"lng":139.6932882,"youtube_id":"","source_video_title":"映画【ナイトフラワー】SnowMan佐久間大介出演シーンのロケ地はどこ？聖地巡礼まとめ","visited_date":"2025-11-18","members":["岩本照","ラウール","深澤辰哉","宮舘涼太","阿部亮平","渡辺翔太","向井康二","目黒蓮","佐久間大介"],"groups":["snowman"],"group":"snowman","nearest_station":"東急多摩川線「武蔵新田駅」より徒歩1分","tags":[],"thumbnail_url":"https://image.tmdb.org/t/p/w500/sswISl055oVSsZnmEiymoDLMu8O.jpg","source_type":""},{"id":"snowman-0f821516-20251102","name":"葛飾八幡宮","genre":"shokuji","prefecture":"千葉県","city":"市川市","lat":35.6652082,"lng":139.9126339,"youtube_id":"","source_video_title":"【メシドラ】SnowMan向井康二が千葉県市川市で訪れたロケ地","visited_date":"2025-11-02","members":["岩本照","ラウール","深澤辰哉","宮舘涼太","阿部亮平","渡辺翔太","向井康二","目黒蓮","佐久間大介"],"groups":["snowman"],"group":"snowman","nearest_station":"「行徳駅」より徒歩5分","tags":[],"thumbnail_url":"https://image.tmdb.org/t/p/w500/yp4RMis8H8sHsR6VcpAm6rRinc1.jpg","source_type":""},{"id":"snowman-60b5d637-20250711","name":"愛の、がっこう","genre":"shokuji","prefecture":"東京都","city":"多摩市","lat":35.6227897,"lng":139.4149511,"youtube_id":"","source_video_title":"【愛の、がっこう】SnowManラウール出演ドラマロケ地まとめ","visited_date":"2025-07-11","members":["岩本照","ラウール","深澤辰哉","宮舘涼太","阿部亮平","渡辺翔太","向井康二","目黒蓮","佐久間大介"],"groups":["snowman"],"group":"snowman","nearest_station":"「京王多摩センター駅」（中央口改札）より徒歩10分「小田急多摩センター駅」（西口改札）より徒歩10分「モノレール多摩センター駅」より徒歩8分","tags":[],"thumbnail_url":"https://image.tmdb.org/t/p/w500/qjKaCJ0LashukKotBTTI6jlp2eM.jpg","source_type":""},{"id":"snowman-saunaland_asakusa-20250717","name":"SAUNALAND ASAKUSA","genre":"shokuji","prefecture":"東京都","city":"文京区","lat":35.7050451,"lng":139.7478428,"youtube_id":"","source_video_title":"【トークィーンズ】SnowMan渡辺翔太がデートで訪れた場所まとめ","visited_date":"2025-07-17","members":["岩本照","ラウール","深澤辰哉","宮舘涼太","阿部亮平","渡辺翔太","向井康二","目黒蓮","佐久間大介"],"groups":["snowman"],"group":"snowman","nearest_station":"JR「水道橋駅」西口都営地下鉄三田線「水道橋駅」A2出口東京メトロ丸ノ内線・南北線「後楽園駅」2番出口都営地下鉄大江戸線「春日駅」6番出口","tags":[],"thumbnail_url":"https://image.tmdb.org/t/p/w500/pR10it0INbK5xtZhYofpWTRs4wl.jpg","source_type":""},{"id":"snowman-28ee7ba1-20250709","name":"誘拐の日","genre":"shokuji","prefecture":"東京都","city":"中央区","lat":35.667003,"lng":139.777695,"youtube_id":"","source_video_title":"【誘拐の日】ロケ地まとめ：SnowMan深澤辰哉出演シーンの病院はどこ？","visited_date":"2025-07-09","members":["岩本照","ラウール","深澤辰哉","宮舘涼太","阿部亮平","渡辺翔太","向井康二","目黒蓮","佐久間大介"],"groups":["snowman"],"group":"snowman","nearest_station":"「築地」駅より徒歩7分「新富町」駅より徒歩8分","tags":[],"thumbnail_url":"https://image.tmdb.org/t/p/w500/6iKNjqSGvWDwRz8nAk8bpmAuU3q.jpg","source_type":""},{"id":"snowman-the_apollo-20250709","name":"THE APOLLO","genre":"shokuji","prefecture":"東京都","city":"中央区","lat":35.6720135,"lng":139.7647202,"youtube_id":"","source_video_title":"【ゴチになります】SnowMan阿部＆佐久間 銀座ギリシャ料理「THE APOLLO」食べたメニュー・予約方法","visited_date":"2025-07-09","members":["岩本照","ラウール","深澤辰哉","宮舘涼太","阿部亮平","渡辺翔太","向井康二","目黒蓮","佐久間大介"],"groups":["snowman"],"group":"snowman","nearest_station":"「銀座駅」C2・C3出より徒歩1分「日比谷駅」A1出口より徒歩2分「有楽町駅」銀座口より徒歩4分","tags":[],"thumbnail_url":"https://image.tmdb.org/t/p/w500/3pT7luuMLOrgJ0650hOtZg9iZFM.jpg","source_type":""},{"id":"snowman-692a804b-20250722","name":"がってん寿司 大宮南中野店","genre":"washoku","prefecture":"埼玉県","city":"さいたま市","lat":35.9096228,"lng":139.6631347,"youtube_id":"","source_video_title":"【帰れマンデー】SnowMan岩本/深澤/向井参戦！埼玉ロケ地はどこ？がってん寿司・馬車道・安楽亭・武蔵野うどん","visited_date":"2025-07-22","members":["岩本照","ラウール","深澤辰哉","宮舘涼太","阿部亮平","渡辺翔太","向井康二","目黒蓮","佐久間大介"],"groups":["snowman"],"group":"snowman","nearest_station":"大宮駅よりバス「日大前バス停」下車徒歩1分","tags":[],"thumbnail_url":"https://image.tmdb.org/t/p/w500/z4xtxeP1dXlDTkDEOGfAamchYMi.jpg","source_type":""},{"id":"snowman-8785c31f-20250712","name":"四十八漁場 山王パークタワー店","genre":"shokuji","prefecture":"東京都","city":"千代田区","lat":35.6768717,"lng":139.7431557,"youtube_id":"","source_video_title":"【それスノ】嵐×SnowMan 松本潤・二宮和也と本音トークのお店はどこ？予約方法は？ロケ地まとめ","visited_date":"2025-07-12","members":["岩本照","ラウール","深澤辰哉","宮舘涼太","阿部亮平","渡辺翔太","向井康二","目黒蓮","佐久間大介"],"groups":["snowman"],"group":"snowman","nearest_station":"「溜池山王駅」「国会議事堂駅」より徒歩1分「赤坂駅」2番出口より徒歩3分","tags":[],"thumbnail_url":"https://image.tmdb.org/t/p/w500/bPibVMymeObVvRCtlkaO3indEtY.jpg","source_type":""},{"id":"snowman-bfb80269-20250412","name":"なんで私まで神説教","genre":"shokuji","prefecture":"東京都","city":"墨田区","lat":35.709577,"lng":139.803174,"youtube_id":"","source_video_title":"【なんで私が神説教】ドラマロケ地になった高校・居酒屋はどこ？SnowMan渡辺翔太","visited_date":"2025-04-12","members":["岩本照","ラウール","深澤辰哉","宮舘涼太","阿部亮平","渡辺翔太","向井康二","目黒蓮","佐久間大介"],"groups":["snowman"],"group":"snowman","nearest_station":"「本所吾妻橋駅」より徒歩すぐ","tags":[],"thumbnail_url":"https://image.tmdb.org/t/p/w500/yO66sqKbnkMJSsHIcbXtxRqOuif.jpg","source_type":""},{"id":"snowman-910f001a-20250612","name":"借り物競争チーム分け","genre":"shokuji","prefecture":"神奈川県","city":"小田原市","lat":35.254233,"lng":139.156474,"youtube_id":"","source_video_title":"【それスノ】小田原ロケ地まとめ：借り物競争で訪れた場所SnowMan聖地巡礼","visited_date":"2025-06-12","members":["岩本照","ラウール","深澤辰哉","宮舘涼太","阿部亮平","渡辺翔太","向井康二","目黒蓮","佐久間大介"],"groups":["snowman"],"group":"snowman","nearest_station":"「小田原駅」より徒歩1分","tags":[],"thumbnail_url":"https://image.tmdb.org/t/p/w500/bPibVMymeObVvRCtlkaO3indEtY.jpg","source_type":""},{"id":"snowman-d65d4fd5-20250601","name":"すきやき 松㐂屋","genre":"yakiniku","prefecture":"神奈川県","city":"鎌倉市","lat":35.3232661,"lng":139.5627131,"youtube_id":"","source_video_title":"【それスノ】鎌倉「すきやき 松㐂屋」食べたメニュー・予約方法は？SnowManロケ地","visited_date":"2025-06-01","members":["岩本照","ラウール","深澤辰哉","宮舘涼太","阿部亮平","渡辺翔太","向井康二","目黒蓮","佐久間大介"],"groups":["snowman"],"group":"snowman","nearest_station":"JR「鎌倉駅」より徒歩7分","tags":[],"thumbnail_url":"https://image.tmdb.org/t/p/w500/bPibVMymeObVvRCtlkaO3indEtY.jpg","source_type":""},{"id":"snowman-c97dcd63-20250606","name":"大谷資料館","genre":"shokuji","prefecture":"栃木県","city":"宇都宮市","lat":36.5999626,"lng":139.824751,"youtube_id":"xZuLeS4N4Ig","source_video_title":"【SnowMan】ドームツアーRAYS目黒蓮オープニング撮影ロケ地「大谷資料館」はどこ？","visited_date":"2025-06-06","members":["岩本照","ラウール","深澤辰哉","宮舘涼太","阿部亮平","渡辺翔太","向井康二","目黒蓮","佐久間大介"],"groups":["snowman"],"group":"snowman","nearest_station":"・JR宇都宮駅西口6番バス乗場から「大谷・立岩行き」に乗車し約30分→「資料館入口」下車し徒歩5分・東武宇都宮駅「東武駅前バス停」から「大谷・立岩行き」に乗車し約20分→「資料館入口」下車し徒歩5分","tags":[],"thumbnail_url":"https://tblg.k-img.com/resize/640x640c/restaurant/images/Rvw/83350/83350253.jpg?token=b1a1d64&api=v2","source_type":"","tabelog_score":3.54,"price_range":"￥10,000～￥14,999"},{"id":"snowman-94f42242-20250606","name":"チームラボボーダレス麻布台","genre":"shokuji","prefecture":"東京都","city":"港区","lat":35.6616023,"lng":139.7412674,"youtube_id":"xZuLeS4N4Ig","source_video_title":"【SnowMan】ドームツアーRAYS佐久間大介オープニング撮影ロケ地「チームラボ」「クジラ」はどこ？","visited_date":"2025-06-06","members":["岩本照","ラウール","深澤辰哉","宮舘涼太","阿部亮平","渡辺翔太","向井康二","目黒蓮","佐久間大介"],"groups":["snowman"],"group":"snowman","nearest_station":"東京メトロ日比谷線「神谷町駅」5番出口より徒歩2分東京メトロ南北線「六本木一丁目駅」4番出口より徒歩7分","tags":[],"thumbnail_url":"https://tblg.k-img.com/resize/640x640c/restaurant/images/Rvw/356668/ccbf84ff6b963f86202200e2c4d28c09.jpg?token=71b0ddc&api=v2","source_type":"","tabelog_score":3.37,"price_range":"￥1,000～￥1,999"},{"id":"snowman-club_ex-20250607","name":"Club eX","genre":"shokuji","prefecture":"東京都","city":"港区","lat":35.6349739,"lng":139.7357164,"youtube_id":"xZuLeS4N4Ig","source_video_title":"【SnowMan】ドームツアーRAYS深澤辰哉オープニング撮影ロケ地は品川のどこ？","visited_date":"2025-06-07","members":["岩本照","ラウール","深澤辰哉","宮舘涼太","阿部亮平","渡辺翔太","向井康二","目黒蓮","佐久間大介"],"groups":["snowman"],"group":"snowman","nearest_station":"新幹線/JR山手線/東海道線/横須賀線/京浜東北線/京急線「品川駅」高輪口より徒歩5分","tags":[],"thumbnail_url":"https://tblg.k-img.com/resize/640x640c/restaurant/images/Rvw/45856/7464531d13fd1b7104c560430a5cc72c.jpg?token=71584be&api=v2","source_type":"","tabelog_score":3.02,"price_range":"-"},{"id":"snowman-8b324f1b-20250517","name":"みさとの風ひろば","genre":"shokuji","prefecture":"埼玉県","city":"三郷市","lat":35.8573382,"lng":139.8752546,"youtube_id":"","source_video_title":"【メシドラ】SnowMan渡辺翔太が三郷コストコ・cafe2345へ、パンチングと菜の花河川敷はどこ？ロケ地調査","visited_date":"2025-05-17","members":["岩本照","ラウール","深澤辰哉","宮舘涼太","阿部亮平","渡辺翔太","向井康二","目黒蓮","佐久間大介"],"groups":["snowman"],"group":"snowman","nearest_station":"「三郷駅」より徒歩14分","tags":[],"thumbnail_url":"https://image.tmdb.org/t/p/w500/yp4RMis8H8sHsR6VcpAm6rRinc1.jpg","source_type":""},{"id":"snowman-65fabdbd-20250509","name":"うなぎ 川松","genre":"washoku","prefecture":"東京都","city":"東久留米市","lat":35.7433534,"lng":139.513935,"youtube_id":"oEsMgH5QhFQ","source_video_title":"【すのちゅーぶ】東久留米「うなぎ川松」決起集会で食べたメニューは？予約方法は？SnowManロケ地","visited_date":"2025-05-09","members":["岩本照","ラウール","深澤辰哉","宮舘涼太","阿部亮平","渡辺翔太","向井康二","目黒蓮","佐久間大介"],"groups":["snowman"],"group":"snowman","nearest_station":"「前沢十字路」バス停下車徒歩3分","tags":[],"thumbnail_url":"https://tblg.k-img.com/resize/640x640c/restaurant/images/Rvw/347941/b3f8df9d1fe786d93890699824056dfe.jpg?token=59a1f7b&api=v2","source_type":"","tabelog_score":3.36,"price_range":"￥4,000～￥4,999"},{"id":"snowman-kitchen_rocco-20250509","name":"Kitchen ROCCO（キッチンロッコ）","genre":"shokuji","prefecture":"東京都","city":"八王子市","lat":35.6488542,"lng":139.3385324,"youtube_id":"LsocWDFXCKs","source_video_title":"【すのちゅーぶ】八王子白ナポリタン「キッチンロッコ」予約方法は？食べたメニューは？SnowManロケ地","visited_date":"2025-05-09","members":["岩本照","ラウール","深澤辰哉","宮舘涼太","阿部亮平","渡辺翔太","向井康二","目黒蓮","佐久間大介"],"groups":["snowman"],"group":"snowman","nearest_station":"「八王子駅」より徒歩7分","tags":[],"thumbnail_url":"https://tblg.k-img.com/resize/640x640c/restaurant/images/Rvw/137505/137505413.jpg?token=4e01f53&api=v2","source_type":"","tabelog_score":3.33,"price_range":"￥3,000～￥3,999"},{"id":"snowman-07838f1d-20250505","name":"立会川 吉田家","genre":"shokuji","prefecture":"東京都","city":"品川区","lat":35.6037231,"lng":139.7415715,"youtube_id":"RcjctEjNWzE","source_video_title":"【すのちゅーぶ】蕎麦屋「立会川 吉田家」食べたメニュー・予約方法は？SnowManロケ地","visited_date":"2025-05-05","members":["岩本照","ラウール","深澤辰哉","宮舘涼太","阿部亮平","渡辺翔太","向井康二","目黒蓮","佐久間大介"],"groups":["snowman"],"group":"snowman","nearest_station":"「立会川駅」より徒歩6分「大井町駅」より徒歩12分","tags":[],"thumbnail_url":"https://tblg.k-img.com/resize/640x640c/restaurant/images/Rvw/138084/138084670.jpg?token=712a957&api=v2","source_type":"","tabelog_score":3.54,"price_range":"￥15,000～￥19,999"},{"id":"snowman-62925e2a-20250430","name":"芝大門１丁目店","genre":"shokuji","prefecture":"東京都","city":"港区","lat":35.657701,"lng":139.754337,"youtube_id":"xgZ4Uu9DitY","source_video_title":"【すのちゅーぶ】お花見ドライブは六本木さくら坂・スペイン坂、セブンイレブンは芝大門 SnowManロケ地","visited_date":"2025-04-30","members":["岩本照","ラウール","深澤辰哉","宮舘涼太","阿部亮平","渡辺翔太","向井康二","目黒蓮","佐久間大介"],"groups":["snowman"],"group":"snowman","nearest_station":"「六本木駅」より徒歩10分「麻布十番駅」より徒歩13分","tags":[],"thumbnail_url":"https://tblg.k-img.com/resize/640x640c/restaurant/images/Rvw/306171/043a87496f713a0524a3fffaf3916215.jpg?token=3d9e43a&api=v2","source_type":"","tabelog_score":3.0,"price_range":"-"},{"id":"snowman-ab35bfac-20250425","name":"芝大門店","genre":"shokuji","prefecture":"東京都","city":"港区","lat":35.6586692,"lng":139.7543228,"youtube_id":"tjZawfZNlUM","source_video_title":"【すのちゅーぶ】ドライブ企画で寄った「モスバーガー芝大門店」で食べたメニューは？SnowManロケ地","visited_date":"2025-04-25","members":["岩本照","ラウール","深澤辰哉","宮舘涼太","阿部亮平","渡辺翔太","向井康二","目黒蓮","佐久間大介"],"groups":["snowman"],"group":"snowman","nearest_station":"「大門駅」（A6出口）すぐ「浜松町駅」より徒歩10分","tags":[],"thumbnail_url":"https://tblg.k-img.com/resize/640x640c/restaurant/images/Rvw/125847/125847836.jpg?token=58b15ec&api=v2","source_type":"","tabelog_score":3.27,"price_range":"￥1,000～￥1,999"},{"id":"snowman-536ddfd7-20250424","name":"磯丸水産 自由が丘しらかば通り店","genre":"shokuji","prefecture":"","city":"","lat":35.6114502,"lng":139.6675812,"youtube_id":"8zvSYQivscg","source_video_title":"【すのちゅーぶ】自由が丘「磯丸水産」食べたメニュー・予約方法は？SnowManロケ地","visited_date":"2025-04-24","members":["岩本照","ラウール","深澤辰哉","宮舘涼太","阿部亮平","渡辺翔太","向井康二","目黒蓮","佐久間大介"],"groups":["snowman"],"group":"snowman","nearest_station":"「自由が丘駅」より徒歩2分「九品仏駅」より徒歩8分「奥沢駅」より徒歩9分","tags":[],"thumbnail_url":"https://tblg.k-img.com/resize/640x640c/restaurant/images/Rvw/140110/140110366.jpg?token=83fa75f&api=v2","source_type":"","tabelog_score":3.08,"price_range":"￥2,000～￥2,999"},{"id":"snowman-99d_d-20250420","name":"99人D.D.","genre":"shokuji","prefecture":"東京都","city":"墨田区","lat":35.710776,"lng":139.813826,"youtube_id":"5n0xZ_WQVZE","source_video_title":"【すのちゅーぶ】スカイツリーのロケ地まとめ：SnowManジュニア時代YouTube","visited_date":"2025-04-20","members":["岩本照","ラウール","深澤辰哉","宮舘涼太","阿部亮平","渡辺翔太","向井康二","目黒蓮","佐久間大介"],"groups":["snowman"],"group":"snowman","nearest_station":"「とうきょうスカイツリー駅」よりすぐ「押上駅」よりすぐ","tags":[],"thumbnail_url":"","source_type":""},{"id":"snowman-795714ed-20250403","name":"浪川荘","genre":"shokuji","prefecture":"千葉県","city":"山武市","lat":34.8986911,"lng":133.0847442,"youtube_id":"dgDGHoqsEhY","source_video_title":"【すのちゅーぶ】九十九里浜で初日の出ロケのホテル「浪川荘」はどこ？SnowMan千葉ロケ地","visited_date":"2025-04-03","members":["岩本照","ラウール","深澤辰哉","宮舘涼太","阿部亮平","渡辺翔太","向井康二","目黒蓮","佐久間大介"],"groups":["snowman"],"group":"snowman","nearest_station":"「成東駅」より車で約15分","tags":[],"thumbnail_url":"https://tblg.k-img.com/resize/640x640c/restaurant/images/Rvw/270477/c0840144a46afa3b9074c8b72942a792.jpg?token=ff8bb26&api=v2","source_type":"","price_range":"-"},{"id":"snowman-05320813-20250311","name":"総本家更科堀井本店","genre":"shokuji","prefecture":"東京都","city":"港区","lat":35.6555514,"lng":139.729634,"youtube_id":"Ax1f_OVispA","source_video_title":"【すのちゅーぶ】麻布十番の蕎麦屋「総本家更科堀井本店」で食べたメニューは？SnowManロケ地","visited_date":"2025-03-11","members":["岩本照","ラウール","深澤辰哉","宮舘涼太","阿部亮平","渡辺翔太","向井康二","目黒蓮","佐久間大介"],"groups":["snowman"],"group":"snowman","nearest_station":"「六本木駅」（3番出口）より徒歩10分「麻布十番駅」（4番出口）より徒歩7分","tags":[],"thumbnail_url":"https://tblg.k-img.com/resize/640x640c/restaurant/images/Rvw/359275/654f736b6910c43172f621fed2b4b0bc.jpg?token=b2d1fcd&api=v2","source_type":"","tabelog_score":3.65,"price_range":"￥5,000～￥5,999"},{"id":"snowman-collabo-20241205","name":"お店 【瀬戸内バル Collabo】","genre":"shokuji","prefecture":"東京都","city":"世田谷区","lat":35.6470592,"lng":139.6699374,"youtube_id":"HksFKrub-_s","source_video_title":"【すのちゅーぶ】三軒茶屋・瀬戸内バル Collabo：SnowManロケ地","visited_date":"2024-12-05","members":["岩本照","ラウール","深澤辰哉","宮舘涼太","阿部亮平","渡辺翔太","向井康二","目黒蓮","佐久間大介"],"groups":["snowman"],"group":"snowman","nearest_station":"三軒茶屋駅から徒歩6分","tags":[],"thumbnail_url":"https://tblg.k-img.com/resize/640x640c/restaurant/images/Rvw/112692/112692297.jpg?token=f115c13&api=v2","source_type":"","tabelog_score":3.37,"price_range":"￥3,000～￥3,999"},{"id":"snowman-a40fd421-20250304","name":"わが家の食堂","genre":"shokuji","prefecture":"東京都","city":"江戸川区","lat":35.6577125,"lng":139.8712094,"youtube_id":"qSQOsjs5ve8","source_video_title":"【すのちゅーぶ】江戸川区葛西「わが家の食堂」で食べたメニューは？SnowManロケ地","visited_date":"2025-03-04","members":["岩本照","ラウール","深澤辰哉","宮舘涼太","阿部亮平","渡辺翔太","向井康二","目黒蓮","佐久間大介"],"groups":["snowman"],"group":"snowman","nearest_station":"「葛西駅」より徒歩7分","tags":[],"thumbnail_url":"https://tblg.k-img.com/resize/640x640c/restaurant/images/Rvw/356395/6ef37e059486fb9027d044e8cc5918b5.jpg?token=d647375&api=v2","source_type":"","tabelog_score":3.24,"price_range":"￥1,000～￥1,999"},{"id":"snowman-homer-20250211","name":"Homer（ホーマー）","genre":"shokuji","prefecture":"東京都","city":"小金井市","lat":35.6919631,"lng":139.5075641,"youtube_id":"oNwT7i2IlbM","source_video_title":"【MVロケ地】阿部亮平「Dear,」レストランHomer(ホーマー) SnowManベストアルバム","visited_date":"2025-02-11","members":["岩本照","ラウール","深澤辰哉","宮舘涼太","阿部亮平","渡辺翔太","向井康二","目黒蓮","佐久間大介"],"groups":["snowman"],"group":"snowman","nearest_station":"「武蔵小金井駅」（南口）より徒歩18分京王バス「前原交番西」下車徒歩2分京王バス「貫井横丁入口」下車徒歩3分","tags":[],"thumbnail_url":"https://tblg.k-img.com/resize/640x640c/restaurant/images/Rvw/18816/18816906.jpg?token=f44168a&api=v2","source_type":"","tabelog_score":3.47,"price_range":"￥2,000～￥2,999"},{"id":"snowman-4f130689-20240717","name":"Rスリランカ","genre":"shokuji","prefecture":"東京都","city":"港区","lat":35.6439554,"lng":139.743205,"youtube_id":"","source_video_title":"【ZIP!キテルネ】SnowMan阿部亮平が訪れたスパイスカレーはどこ？Rスリランカ三田店","visited_date":"2024-07-17","members":["岩本照","ラウール","深澤辰哉","宮舘涼太","阿部亮平","渡辺翔太","向井康二","目黒蓮","佐久間大介"],"groups":["snowman"],"group":"snowman","nearest_station":"「三田駅」より徒歩5分「田町駅」より徒歩8分","tags":[],"thumbnail_url":"https://image.tmdb.org/t/p/w500/jubZAwFlffMPxwYU55YWCphK7ze.jpg","source_type":""},{"id":"snowman-trattoria_e_pizzeria-20240718","name":"Trattoria e Pizzeria de salita 赤坂","genre":"shokuji","prefecture":"東京都","city":"港区","lat":35.6716786,"lng":139.7356224,"youtube_id":"flzByEH1qc8","source_video_title":"【すのちゅーぶ】赤坂イタリアン「Trattoria e Pizzeria de salita」予約方法は？SnowManロケ地","visited_date":"2024-07-18","members":["岩本照","ラウール","深澤辰哉","宮舘涼太","阿部亮平","渡辺翔太","向井康二","目黒蓮","佐久間大介"],"groups":["snowman"],"group":"snowman","nearest_station":"東京メトロ銀座線赤坂見附駅徒歩1分","tags":[],"thumbnail_url":"https://tblg.k-img.com/resize/640x640c/restaurant/images/Rvw/169874/b0c372d24a817845c5a2ccc0e7383459.jpg?token=9364d8d&api=v2","source_type":"","tabelog_score":3.46,"price_range":"￥4,000～￥4,999"},{"id":"37c9d7cd","name":"SUSHI BANYA KAI 品川店","genre":"sushi","prefecture":"東京都","city":"港区","lat":35.626623788742535,"lng":139.74078267385082,"source_video_title":"すのちゅーぶ（Snow Man / 2025-12-17）","visited_date":"2025-12-17","members":[],"groups":["snowman"],"group":"snowman","source_type":"youtube","thumbnail_url":"https://tblg.k-img.com/resize/640x640c/restaurant/images/Rvw/263790/7ee4c60cb2d0359a36fc38f34c87d640.jpg?token=1197cec&api=v2","tabelog_score":3.53,"price_range":"￥10,000～￥14,999","nearest_station":"品川駅 徒歩4分"},{"id":"0aab18b7","name":"土鍋ご飯 いくしか中目黒店","genre":"washoku","prefecture":"東京都","city":"目黒区","lat":35.64459597871882,"lng":139.70215222405943,"source_video_title":"すのちゅーぶ（Snow Man / 2025-06-12）","visited_date":"2025-06-12","members":[],"groups":["snowman"],"group":"snowman","source_type":"youtube","thumbnail_url":"https://tblg.k-img.com/resize/640x640c/restaurant/images/Rvw/288849/6ecbc427e17421ae7001be5461bba56d.jpg?token=0d812ee&api=v2","tabelog_score":3.34,"price_range":"￥2,000～￥2,999","nearest_station":"東京メトロ日比谷線（東急東横線）中目黒駅 徒歩5分"},{"id":"cae3f15c","name":"ナプレ南青山本店","genre":"others","prefecture":"東京都","city":"港区","lat":35.663791937904364,"lng":139.71191488308472,"source_video_title":"すのちゅーぶ（Snow Man / 2025-04-16）","visited_date":"2025-04-16","members":[],"groups":["snowman"],"group":"snowman","source_type":"youtube","thumbnail_url":"https://tblg.k-img.com/resize/640x640c/restaurant/images/Rvw/104090/104090406.jpg?token=c5a18cd&api=v2","tabelog_score":3.55,"price_range":"￥6,000～￥7,999","nearest_station":"表参道駅 徒歩3分"},{"id":"fc404712","name":"そば会席 立会川 吉田家","genre":"washoku","prefecture":"東京都","city":"品川区","lat":35.6000424379541,"lng":139.74095258242045,"source_video_title":"すのちゅーぶ（Snow Man）","visited_date":"2024-01-01","members":[],"groups":["snowman"],"group":"snowman","source_type":"youtube","thumbnail_url":"https://tblg.k-img.com/resize/640x640c/restaurant/images/Rvw/138084/138084670.jpg?token=712a957&api=v2","tabelog_score":3.55,"price_range":"￥15,000～￥19,999","nearest_station":"立会川駅 徒歩4分"},{"id":"eec12086","name":"つる次郎HANARE","genre":"izakaya","prefecture":"東京都","city":"台東区","lat":35.71182233790052,"lng":139.79566408351116,"source_video_title":"すのちゅーぶ（Snow Man）","visited_date":"2024-01-01","members":[],"groups":["snowman"],"group":"snowman","source_type":"youtube","thumbnail_url":"https://tblg.k-img.com/resize/640x640c/restaurant/images/Rvw/241357/059de895b00c621ab1c4b949b853ab60.jpg?token=e6ca13f&api=v2","tabelog_score":3.46,"price_range":"￥2,000～￥2,999","nearest_station":"浅草駅 徒歩4分"},{"id":"3b39dc89","name":"おにぎり 浅草 宿六","genre":"washoku","prefecture":"東京都","city":"台東区","lat":35.716892738702384,"lng":139.79475880472478,"source_video_title":"すのちゅーぶ（Snow Man）","visited_date":"2024-01-01","members":[],"groups":["snowman"],"group":"snowman","source_type":"youtube","thumbnail_url":"https://tblg.k-img.com/resize/640x640c/restaurant/images/Rvw/3620/3620534.jpg?token=6284787&api=v2","tabelog_score":3.49,"price_range":"￥1,000～￥1,999","nearest_station":"つくばエクスプレス浅草駅 徒歩3分"},{"id":"26a9a1f1","name":"浅草つる次郎HANARE","group":"snowman","groups":["snowman"],"genre":"shokuji","prefecture":"東京都","lat":35.712473398705896,"lng":139.7969524046786,"source_video_title":"Snow Man すのちゅーぶ グルメ回","members":[],"thumbnail_url":"https://tblg.k-img.com/resize/640x640c/restaurant/images/Rvw/273913/9867ca9b9f297b6890ca8d7d52229505.jpg?token=775c431&api=v2","tabelog_score":3.32,"price_range":"￥4,000～￥4,999","nearest_station":"地下鉄銀座線 浅草駅 徒歩2分"},{"id":"2cf4d217","name":"スペイン料理Pablo","group":"snowman","groups":["snowman"],"genre":"shokuji","prefecture":"東京都","lat":35.645852637910814,"lng":139.6964068829144,"source_video_title":"Snow Man すのちゅーぶ グルメ回","members":[],"thumbnail_url":"https://tblg.k-img.com/resize/640x640c/restaurant/images/Rvw/146593/146593498.jpg?token=890fd1e&api=v2","tabelog_score":3.6,"price_range":"￥5,000～￥5,999","nearest_station":"中目黒駅 徒歩5分"},{"id":"e0c1616c","name":"龍朋（りゅうほう）","group":"snowman","groups":["snowman"],"genre":"chuka","prefecture":"東京都","lat":35.70422381869095,"lng":139.73356692463972,"source_video_title":"Snow Man すのちゅーぶ グルメ回","members":[],"thumbnail_url":"https://tblg.k-img.com/resize/640x640c/restaurant/images/Rvw/260390/9e5d0cb3aba7fd998541e889f008fe3b.jpg?token=b7eca7c&api=v2","tabelog_score":3.65,"price_range":"～￥999","nearest_station":"神楽坂駅 徒歩1分"},{"id":"9876d475","name":"花笠食堂","group":"snowman","groups":["snowman"],"genre":"shokuji","prefecture":"沖縄県","lat":26.21499361088192,"lng":127.6888693072327,"source_video_title":"Snow Man すのちゅーぶ グルメ回","members":[],"thumbnail_url":"https://tblg.k-img.com/resize/640x640c/restaurant/images/Rvw/302736/7f2eaa607749271d2b30f076b8aa6a22.jpg?token=aaa2551&api=v2","tabelog_score":3.43,"price_range":"￥1,000～￥1,999","nearest_station":"牧志駅 徒歩7分"},{"id":"925ff46f","name":"浅草むぎとろ 本店","group":"snowman","groups":["snowman"],"genre":"washoku","prefecture":"東京都","lat":35.709171288707914,"lng":139.79671505464543,"source_video_title":"Snow Man すのちゅーぶ グルメ回","members":[],"thumbnail_url":"https://tblg.k-img.com/resize/640x640c/restaurant/images/Rvw/308760/12377d500daba6960065bfa2cb42d670.jpg?token=154f8f6&api=v2","tabelog_score":3.49,"price_range":"￥4,000～￥4,999","nearest_station":"浅草駅 徒歩1分"},{"id":"fbc1833e","name":"K.MINAMOTO ORIKA","group":"snowman","groups":["snowman"],"genre":"sweets","prefecture":"東京都","lat":35.669805408722254,"lng":139.76322967427126,"source_video_title":"Snow Man すのちゅーぶ グルメ回","members":[],"thumbnail_url":"https://tblg.k-img.com/resize/640x640c/restaurant/images/Rvw/174459/5401662c3c168235191c7ddc99ab03cb.jpg?token=b95c8a6&api=v2","tabelog_score":3.44,"price_range":"￥2,000～￥2,999"},{"id":"5a807ce7","name":"ガスト 銀座インズ店","group":"snowman","groups":["snowman"],"genre":"shokuji","prefecture":"東京都","lat":35.67400455756039,"lng":139.76446785742613,"source_video_title":"Snow Man すのちゅーぶ グルメ回","members":[],"thumbnail_url":"https://tblg.k-img.com/resize/640x640c/restaurant/images/Rvw/341966/2375f93ea61eafd241d4e5bc15ef38a0.jpg?token=21927c2&api=v2","tabelog_score":3.08,"price_range":"￥1,000～￥1,999","nearest_station":"有楽町駅 徒歩3分"},{"id":"12ef79b6","name":"江戸東京寿し常 東京ソラマチ店","group":"snowman","groups":["snowman"],"genre":"sushi","prefecture":"東京都","lat":35.71023633790687,"lng":139.81243368348342,"source_video_title":"Snow Man すのちゅーぶ グルメ回","members":[],"thumbnail_url":"https://tblg.k-img.com/resize/640x640c/restaurant/images/Rvw/36124/36124321.jpg?token=aedefd7&api=v2","tabelog_score":3.21,"price_range":"￥1,000～￥1,999"},{"id":"9c9ec432","name":"6年4組 渋谷分校","group":"snowman","groups":["snowman"],"genre":"izakaya","prefecture":"東京都","lat":35.66105713790147,"lng":139.69738848306727,"source_video_title":"Snow Man すのちゅーぶ グルメ回","members":[],"thumbnail_url":"https://tblg.k-img.com/resize/640x640c/restaurant/images/Rvw/139599/139599748.jpg?token=6421247&api=v2","tabelog_score":3.09,"price_range":"￥2,000～￥2,999","nearest_station":"ＪＲ渋谷駅 徒歩5分"},{"id":"421545c3","name":"深川冨士見","group":"snowman","groups":["snowman"],"genre":"shokuji","prefecture":"東京都","lat":35.665534798736864,"lng":139.80057864420195,"source_video_title":"Snow Man すのちゅーぶ グルメ回","members":[],"thumbnail_url":"https://tblg.k-img.com/resize/640x640c/restaurant/images/Rvw/58544/58544918.jpg?token=8484adf&api=v2","tabelog_score":3.28,"price_range":"￥10,000～￥14,999","nearest_station":"木場駅 徒歩11分"},{"id":"2ddca340","name":"田むら銀かつ亭 本店","group":"snowman","groups":["snowman"],"genre":"shokuji","prefecture":"神奈川県","lat":35.250609718761126,"lng":139.04928926053745,"source_video_title":"Snow Man すのちゅーぶ グルメ回","members":[],"thumbnail_url":"https://tblg.k-img.com/resize/640x640c/restaurant/images/Rvw/365383/900171b236b14ecc3ab946df4e858c38.jpg?token=fe7526c&api=v2","tabelog_score":3.49,"price_range":"￥2,000～￥2,999","nearest_station":"箱根登山鉄道強羅駅 徒歩2分"},{"id":"84d28d77","name":"喫茶 マウンテン","group":"snowman","groups":["snowman"],"genre":"cafe","prefecture":"愛知県","lat":35.14470116816323,"lng":136.96064765093178,"source_video_title":"Snow Man すのちゅーぶ 旅スノ（愛知）","members":[],"thumbnail_url":"https://tblg.k-img.com/resize/640x640c/restaurant/images/Rvw/152281/152281960.jpg?token=586b8fb&api=v2","tabelog_score":3.35,"price_range":"￥1,000～￥1,999"},{"id":"fd1099c7","name":"ぶたや黒将","group":"snowman","groups":["snowman"],"genre":"食事","lat":26.394147974818583,"lng":127.72637460356847,"prefecture":"沖縄県","source_video_title":"旅スノ 沖縄旅","members":[],"thumbnail_url":"https://tblg.k-img.com/resize/640x640c/restaurant/images/Rvw/30813/30813027.jpg?token=af94e75&api=v2","tabelog_score":3.5,"price_range":"￥3,000～￥3,999"},{"id":"85b25926","name":"べんべん","group":"snowman","groups":["snowman"],"genre":"居酒屋","lat":33.56504193811159,"lng":133.64815686729767,"prefecture":"高知県","source_video_title":"旅スノ 高知旅","members":[],"thumbnail_url":"https://tblg.k-img.com/resize/640x640c/restaurant/images/Rvw/60859/60859523.jpg?token=eb520b2&api=v2","tabelog_score":3.04,"price_range":"￥3,000～￥3,999","nearest_station":"後免東町駅 徒歩17分"},{"id":"b1fd2358","name":"下鴨茶寮","group":"snowman","groups":["snowman"],"genre":"和食","lat":35.034183037050134,"lng":135.77399057948546,"prefecture":"京都府","source_video_title":"旅スノ 京都旅","members":[],"thumbnail_url":"https://tblg.k-img.com/resize/640x640c/restaurant/images/Rvw/123785/123785531.jpg?token=aec9c5b&api=v2","tabelog_score":3.61,"price_range":"￥20,000～￥29,999"},{"id":"44d11852","name":"割烹さわ","group":"snowman","groups":["snowman"],"genre":"和食","lat":36.32260143726215,"lng":139.00922199023188,"prefecture":"群馬県","source_video_title":"旅スノ 高崎旅","members":[],"thumbnail_url":"https://tblg.k-img.com/resize/640x640c/restaurant/images/Rvw/27576/27576911.jpg?token=03e33fe&api=v2","tabelog_score":3.43,"price_range":"-","nearest_station":"高崎駅 徒歩5分"},{"id":"be2e4683","name":"つば甚","group":"snowman","groups":["snowman"],"genre":"和食","lat":36.555241736363506,"lng":136.65139049423453,"prefecture":"石川県","source_video_title":"旅スノ 金沢旅","members":[],"thumbnail_url":"https://tblg.k-img.com/resize/640x640c/restaurant/images/Rvw/17906/17906482.jpg?token=81f9e9d&api=v2","tabelog_score":3.73,"price_range":"￥30,000～￥39,999","nearest_station":"野町駅 徒歩10分"},{"id":"caa4cbbd","name":"ほうとう蔵 歩成 河口湖店","group":"snowman","groups":["snowman"],"genre":"食事","lat":35.49050343771152,"lng":138.76077808200108,"prefecture":"山梨県","source_video_title":"それスノ 日帰りバスツアー in河口湖","members":[],"thumbnail_url":"https://tblg.k-img.com/resize/640x640c/restaurant/images/Rvw/74572/74572137.jpg?token=c166e3d&api=v2","tabelog_score":3.51,"price_range":"￥1,000～￥1,999","nearest_station":"河口湖駅 徒歩18分"},{"id":"ed8090e0","name":"阿佐ヶ谷 バードランド","group":"snowman","groups":["snowman"],"genre":"居酒屋","lat":35.70437063785401,"lng":139.63475788354867,"prefecture":"東京都","source_video_title":"すのちゅーぶ","members":[],"thumbnail_url":"https://tblg.k-img.com/resize/640x640c/restaurant/images/Rvw/164783/6dfba6e91fd87378c4f9d93a33ee026d.jpg?token=e6a6be4&api=v2","tabelog_score":3.57,"price_range":"￥10,000～￥14,999","nearest_station":"阿佐ケ谷駅 徒歩1分"},{"id":"c101fa6c","name":"浅草 つる次郎 HANARE","group":"snowman","groups":["snowman"],"genre":"食事","lat":35.712473398705896,"lng":139.7969524046786,"prefecture":"東京都","source_video_title":"すのちゅーぶ","members":[],"thumbnail_url":"https://tblg.k-img.com/resize/640x640c/restaurant/images/Rvw/273913/9867ca9b9f297b6890ca8d7d52229505.jpg?token=775c431&api=v2","tabelog_score":3.32,"price_range":"￥4,000～￥4,999","nearest_station":"地下鉄銀座線 浅草駅 徒歩2分"},{"id":"1f63e708","name":"THE HOUSE K.Minamoto","group":"snowman","groups":["snowman"],"genre":"カフェ","lat":35.669805408722254,"lng":139.76322967427126,"prefecture":"東京都","source_video_title":"すのちゅーぶ","members":[],"thumbnail_url":"https://tblg.k-img.com/resize/640x640c/restaurant/images/Rvw/174459/5401662c3c168235191c7ddc99ab03cb.jpg?token=b95c8a6&api=v2","tabelog_score":3.44,"price_range":"￥2,000～￥2,999"},{"id":"f2f04416","name":"THE BAGUS PLACE","group":"snowman","groups":["snowman"],"genre":"食事","lat":35.6740459087205,"lng":139.76617866431204,"prefecture":"東京都","source_video_title":"すのちゅーぶ","members":[],"thumbnail_url":"https://tblg.k-img.com/resize/640x640c/restaurant/images/Rvw/361105/6fc756ed43afa987d574a917ee40503e.jpg?token=e3ced2a&api=v2","tabelog_score":3.08,"price_range":"￥4,000～￥4,999","nearest_station":"銀座一丁目駅 徒歩1分"},{"id":"2b379e5a","name":"割烹楓","group":"snowman","groups":["snowman"],"genre":"和食","lat":36.22495367821397,"lng":139.27433231022147,"prefecture":"埼玉県","source_video_title":"すのちゅーぶ","members":[],"thumbnail_url":"https://tblg.k-img.com/resize/640x640c/restaurant/images/Rvw/13434/13434422.jpg?token=ee299f4&api=v2","tabelog_score":3.28,"price_range":"￥2,000～￥2,999"},{"id":"70697f1a","name":"茶音 姫","group":"snowman","groups":["snowman"],"genre":"カフェ","lat":35.31713311801466,"lng":136.83802307275943,"prefecture":"愛知県","source_video_title":"すのちゅーぶ","members":[],"thumbnail_url":"https://tblg.k-img.com/resize/640x640c/restaurant/images/Rvw/282981/2065f826015d1142d8eb7a7972f60043.jpg?token=e870029&api=v2","tabelog_score":3.19,"price_range":"-"},{"id":"12816684","name":"COCORO CAFÉ","group":"snowman","groups":["snowman"],"genre":"カフェ","lat":35.302605738029406,"lng":136.85534684260057,"prefecture":"愛知県","source_video_title":"すのちゅーぶ","members":[],"thumbnail_url":"https://tblg.k-img.com/resize/640x640c/restaurant/images/Rvw/331640/a9c93c0544b32552fb5c776e2a99a490.jpg?token=8705702&api=v2","tabelog_score":3.43,"price_range":"-"},{"id":"66241ca4","name":"気晴亭 鶴舞本店","group":"snowman","groups":["snowman"],"genre":"食事","lat":35.15760758814109,"lng":136.91687934109282,"prefecture":"愛知県","source_video_title":"すのちゅーぶ","members":[],"thumbnail_url":"https://tblg.k-img.com/resize/640x640c/restaurant/images/Rvw/42927/42927366.jpg?token=87fbfe0&api=v2","tabelog_score":3.47,"price_range":"￥1,000～￥1,999"},{"id":"c3d99c41","name":"加茂みたらし茶屋","group":"snowman","groups":["snowman"],"genre":"スイーツ","lat":35.039669917851,"lng":135.7707726007049,"prefecture":"京都府","source_video_title":"すのちゅーぶ","members":[],"thumbnail_url":"https://tblg.k-img.com/resize/640x640c/restaurant/images/Rvw/184679/b1d32d374734140f7d2cec48dc2b3acc.jpg?token=0cb5099&api=v2","tabelog_score":3.71,"price_range":"-","nearest_station":"出町柳駅 徒歩17分"},{"id":"46c9f2db","name":"美酒佳肴ゆらくhanare","group":"snowman","groups":["snowman"],"genre":"食事","lat":35.42348910683153,"lng":133.3350383962892,"prefecture":"鳥取県","source_video_title":"旅スノ 米子旅","members":[],"thumbnail_url":"https://tblg.k-img.com/resize/640x640c/restaurant/images/Rvw/316360/17bdb0a6eb9f98c4b7b363a10ee7830b.jpg?token=032cd41&api=v2","tabelog_score":3.15,"price_range":"￥6,000～￥7,999"},{"id":"d3ef8b91","name":"福みつ","group":"snowman","groups":["snowman"],"genre":"食事","lat":34.713348153487374,"lng":137.7454056040436,"prefecture":"静岡県","source_video_title":"旅スノ 浜松旅","members":[],"thumbnail_url":"https://tblg.k-img.com/resize/640x640c/restaurant/images/Rvw/285661/b8b3887b27f3a29cd246591d65de1c99.jpg?token=a7be2e6&api=v2","tabelog_score":3.66,"price_range":"￥1,000～￥1,999","nearest_station":"八幡駅 徒歩16分"},{"id":"9cefeacf","name":"神ヶ谷茶家かねごん","group":"snowman","groups":["snowman"],"genre":"カフェ","lat":34.72190549865957,"lng":137.67596461615972,"prefecture":"静岡県","source_video_title":"旅スノ 浜松旅","members":[],"thumbnail_url":"https://tblg.k-img.com/resize/640x640c/restaurant/images/Rvw/127991/127991312.jpg?token=342c31a&api=v2","tabelog_score":3.13,"price_range":"-"},{"id":"0ff23edd","name":"サロン・ド・テ・カワムラ","group":"snowman","groups":["snowman"],"genre":"カフェ","lat":36.55669836716658,"lng":136.64707772541405,"prefecture":"石川県","source_video_title":"旅スノ 金沢旅","members":[],"thumbnail_url":"https://tblg.k-img.com/resize/640x640c/restaurant/images/Rvw/337861/3a97e3d292fd3c0fa20a1874ecb2764e.jpg?token=5c9e38b&api=v2","tabelog_score":3.51,"price_range":"-","nearest_station":"野町駅 徒歩6分"},{"id":"419a2779","name":"松島 寿司幸","group":"snowman","groups":["snowman"],"genre":"食事","lat":38.37017150742084,"lng":141.06209263063698,"prefecture":"宮城県","source_video_title":"旅スノ 宮城旅","members":[],"thumbnail_url":"https://tblg.k-img.com/resize/640x640c/restaurant/images/Rvw/325423/d676ba38824caddf701d2ab8b12f597b.jpg?token=c34a5bc&api=v2","tabelog_score":3.54,"price_range":"￥6,000～￥7,999","nearest_station":"松島海岸駅 徒歩6分"},{"id":"b6b705aa","name":"梵くら","group":"snowman","groups":["snowman"],"genre":"カフェ","lat":38.264484507424854,"lng":140.86390574970838,"prefecture":"宮城県","source_video_title":"旅スノ 仙台旅","members":[],"thumbnail_url":"https://tblg.k-img.com/resize/640x640c/restaurant/images/Rvw/180297/6835e10486b829857736b71a95b2ef86.jpg?token=cb70b3e&api=v2","tabelog_score":3.63,"price_range":"-","nearest_station":"地下鉄 勾当台公園駅 徒歩5分"},{"id":"838f57d4","name":"味の牛たん喜助 駅前中央本店","group":"snowman","groups":["snowman"],"genre":"食事","lat":38.261287137431616,"lng":140.87876597966567,"prefecture":"宮城県","source_video_title":"旅スノ 仙台旅","members":[],"thumbnail_url":"https://tblg.k-img.com/resize/640x640c/restaurant/images/Rvw/205487/992b77d4cccf8c6d0589512e4c8fe618.jpg?token=2d641c2&api=v2","tabelog_score":3.26,"price_range":"￥3,000～￥3,999","nearest_station":"あおば通駅 徒歩1分"},{"id":"2f5904ba","name":"味の大王 生粋","group":"snowman","groups":["snowman"],"genre":"ラーメン","lat":42.64741131487445,"lng":141.59642817346653,"prefecture":"北海道","source_video_title":"旅スノ 北海道旅","members":[],"thumbnail_url":"https://tblg.k-img.com/resize/640x640c/restaurant/images/Rvw/342428/3ad46f6b35143f4a91a23c124556a0ff.jpg?token=6b794b1&api=v2","tabelog_score":3.46,"price_range":"～￥999","nearest_station":"苫小牧駅 徒歩14分"},{"id":"ff8a917f","name":"来らっせ本店","group":"snowman","groups":["snowman"],"genre":"食事","lat":36.56077858819524,"lng":139.88525537318537,"prefecture":"栃木県","source_video_title":"それスノ 浜松餃子VS宇都宮餃子","members":[],"thumbnail_url":"https://tblg.k-img.com/resize/640x640c/restaurant/images/Rvw/350418/b126a7c4ee952a46e859fe40c433a502.jpg?token=e6c37e0&api=v2","tabelog_score":3.27,"price_range":"￥1,000～￥1,999","nearest_station":"東武宇都宮駅 徒歩7分"},{"id":"f79e0ba9","name":"めんめん","group":"snowman","groups":["snowman"],"genre":"食事","lat":36.558742608197356,"lng":139.88781794316301,"prefecture":"栃木県","source_video_title":"それスノ 浜松餃子VS宇都宮餃子","members":[],"thumbnail_url":"https://tblg.k-img.com/resize/640x640c/restaurant/images/Rvw/344448/4ba5a6862dc678c96d1fcf90dd5b4748.jpg?token=782770e&api=v2","tabelog_score":3.52,"price_range":"￥1,000～￥1,999"},{"id":"bf463381","name":"むつぎく","group":"snowman","groups":["snowman"],"genre":"食事","lat":34.70197231538629,"lng":137.73487005394387,"prefecture":"静岡県","source_video_title":"それスノ 浜松餃子VS宇都宮餃子","members":[],"thumbnail_url":"https://tblg.k-img.com/resize/640x640c/restaurant/images/Rvw/288344/87593fa412b2e3c8e7b2b45968e02ae7.jpg?token=8e25af5&api=v2","tabelog_score":3.6,"price_range":"￥1,000～￥1,999","nearest_station":"浜松駅 徒歩3分"},{"id":"31013ce0","name":"餃子の店かめ","group":"snowman","groups":["snowman"],"genre":"食事","lat":34.728922618694625,"lng":137.80002454614362,"prefecture":"静岡県","source_video_title":"それスノ 浜松餃子VS宇都宮餃子","members":[],"thumbnail_url":"https://tblg.k-img.com/resize/640x640c/restaurant/images/Rvw/29315/29315611.jpg?token=65bd7c8&api=v2","tabelog_score":3.35,"price_range":"-"},{"id":"07ff1e52","name":"ケーキファクトリー ホイップ","group":"snowman","groups":["snowman"],"genre":"スイーツ","lat":35.63262273785751,"lng":139.5026333829166,"prefecture":"東京都","source_video_title":"すのちゅーぶ","members":[],"thumbnail_url":"https://tblg.k-img.com/resize/640x640c/restaurant/images/Rvw/9145/9145147.jpg?token=38d94fa&api=v2","tabelog_score":3.29,"price_range":"-","nearest_station":"京王線稲城駅 徒歩７分"},{"id":"49bfa5e1","name":"まぐろ食堂 七兵衛丸","group":"snowman","groups":["snowman"],"genre":"食事","lat":35.141249509011104,"lng":139.61609407903552,"prefecture":"神奈川県","source_video_title":"それスノ","members":[],"thumbnail_url":"https://tblg.k-img.com/resize/640x640c/restaurant/images/Rvw/358149/16041fe9a69b75d6dc6f07eb202de886.jpg?token=893b9fa&api=v2","tabelog_score":3.49,"price_range":"￥1,000～￥1,999"},{"id":"b60b5d96","name":"くろば亭","group":"snowman","groups":["snowman"],"genre":"食事","lat":35.1418972190124,"lng":139.62147894903828,"prefecture":"神奈川県","source_video_title":"それスノ","members":[],"thumbnail_url":"https://tblg.k-img.com/resize/640x640c/restaurant/images/Rvw/360821/c4701bf7a5f69dad36aa52b4a8840842.jpg?token=3155b29&api=v2","tabelog_score":3.57,"price_range":"￥4,000～￥4,999"},{"id":"ea88757d","name":"地魚料理 松輪","group":"snowman","groups":["snowman"],"genre":"食事","lat":35.143128825486784,"lng":139.66819973941458,"prefecture":"神奈川県","source_video_title":"それスノ","members":[],"thumbnail_url":"https://tblg.k-img.com/resize/640x640c/restaurant/images/Rvw/91637/91637581.jpg?token=89ebd6d&api=v2","tabelog_score":3.58,"price_range":"-"},{"id":"3cb0dcda","name":"海鮮丼 佐政","group":"snowman","groups":["snowman"],"genre":"食事","lat":35.0838229380008,"lng":138.858080877825,"prefecture":"静岡県","source_video_title":"それスノ","members":[],"thumbnail_url":"https://tblg.k-img.com/resize/640x640c/restaurant/images/Rvw/64632/64632293.jpg?token=4c3981d&api=v2","tabelog_score":3.41,"price_range":"￥1,000～￥1,999"},{"id":"21fcd031","name":"沼津港 五鉃","group":"snowman","groups":["snowman"],"genre":"食事","lat":35.08243941061607,"lng":138.85794248413512,"prefecture":"静岡県","source_video_title":"それスノ","members":[],"thumbnail_url":"https://tblg.k-img.com/resize/640x640c/restaurant/images/Rvw/134235/134235129.jpg?token=75b9130&api=v2","tabelog_score":3.59,"price_range":"-"},{"id":"af1377cf","name":"海ぼうず","group":"snowman","groups":["snowman"],"genre":"食事","lat":35.733843989023924,"lng":140.8381960141646,"prefecture":"千葉県","source_video_title":"それスノ","members":[],"thumbnail_url":"https://tblg.k-img.com/resize/640x640c/restaurant/images/Rvw/28001/28001740.jpg?token=a2bacbc&api=v2","tabelog_score":3.42,"price_range":"￥2,000～￥2,999"},{"id":"0d08448a","name":"鮪蔵","group":"snowman","groups":["snowman"],"genre":"食事","lat":35.73348000902494,"lng":140.8406425541592,"prefecture":"千葉県","source_video_title":"それスノ","members":[],"thumbnail_url":"https://tblg.k-img.com/resize/640x640c/restaurant/images/Rvw/9310/9310909.jpg?token=8f3625a&api=v2","tabelog_score":3.4,"price_range":"￥2,000～￥2,999"},{"id":"e4410337","name":"ぎょ魚蔵部","group":"snowman","groups":["snowman"],"genre":"食事","lat":35.733444329024934,"lng":140.8405704941589,"prefecture":"千葉県","source_video_title":"それスノ","members":[],"thumbnail_url":"https://tblg.k-img.com/resize/640x640c/restaurant/images/Rvw/173462/262d311372d2eee6b5c3e3feaefa94d3.jpg?token=e0cc6a7&api=v2","tabelog_score":3.14,"price_range":"-","nearest_station":"観音駅 徒歩8分"},{"id":"87007b77","name":"旧ヤム邸 シモキタ荘","group":"snowman","groups":["snowman"],"genre":"食事","lat":35.65842642869886,"lng":139.66707356422376,"prefecture":"東京都","source_video_title":"それスノ","members":[],"thumbnail_url":"https://tblg.k-img.com/resize/640x640c/restaurant/images/Rvw/315282/fb53fe830dffdffcff9773f0bafbc7c6.jpg?token=942cf60&api=v2","tabelog_score":3.81,"price_range":"￥1,000～￥1,999","nearest_station":"下北沢駅 徒歩5分"},{"id":"62830aa4","name":"般ﾟ若","group":"snowman","groups":["snowman"],"genre":"食事","lat":35.6630341586965,"lng":139.66883637426903,"prefecture":"東京都","source_video_title":"それスノ","members":[],"thumbnail_url":"https://tblg.k-img.com/resize/640x640c/restaurant/images/Rvw/188478/400e50fb7367da68ee8ceeea662d9f51.jpg?token=9794ec4&api=v2","tabelog_score":3.72,"price_range":"￥1,000～￥1,999","nearest_station":"下北沢駅 徒歩4分"},{"id":"f2781b58","name":"茄子おやじ","group":"snowman","groups":["snowman"],"genre":"食事","lat":35.659281138698255,"lng":139.6668802442325,"prefecture":"東京都","source_video_title":"それスノ","members":[],"thumbnail_url":"https://tblg.k-img.com/resize/640x640c/restaurant/images/Rvw/359943/6b6ee5d0eac33dfaae39563b71c1df16.jpg?token=9fe0d11&api=v2","tabelog_score":3.65,"price_range":"￥1,000～￥1,999","nearest_station":"小田急小田原線、京王井の頭線 下北沢駅 徒歩４分"},{"id":"567a45e0","name":"MAJI CURRY 神田神保町店","group":"snowman","groups":["snowman"],"genre":"食事","lat":35.696295237899484,"lng":139.76141088337832,"prefecture":"東京都","source_video_title":"それスノ","members":[],"thumbnail_url":"https://tblg.k-img.com/resize/640x640c/restaurant/images/Rvw/152728/152728574.jpg?token=69d2459&api=v2","tabelog_score":3.68,"price_range":"￥1,000～￥1,999","nearest_station":"神保町駅 徒歩4分"},{"id":"e9ac0dc6","name":"タケウチ 神保町本店","group":"snowman","groups":["snowman"],"genre":"食事","lat":35.69680328870394,"lng":139.75953205454653,"prefecture":"東京都","source_video_title":"それスノ","members":[],"thumbnail_url":"https://tblg.k-img.com/resize/640x640c/restaurant/images/Rvw/127567/127567412.jpg?token=fbceed1&api=v2","tabelog_score":3.85,"price_range":"￥1,000～￥1,999","nearest_station":"神保町駅 徒歩2分"},{"id":"a9375da8","name":"小江戸 オハナ","group":"snowman","groups":["snowman"],"genre":"食事","lat":35.92120366847341,"lng":139.48321303700692,"prefecture":"埼玉県","source_video_title":"それスノ","members":[],"thumbnail_url":"https://tblg.k-img.com/resize/640x640c/restaurant/images/Rvw/343238/36808ba786b0c78fcbd31c0d31644799.jpg?token=2c89936&api=v2","tabelog_score":3.46,"price_range":"￥1,000～￥1,999","nearest_station":"本川越駅 徒歩13分"},{"id":"ebe1f3a0","name":"うなぎ傳米","group":"snowman","groups":["snowman"],"genre":"和食","lat":35.922321337667164,"lng":139.4826923858568,"prefecture":"埼玉県","source_video_title":"それスノ","members":[],"thumbnail_url":"https://tblg.k-img.com/resize/640x640c/restaurant/images/Rvw/166290/da98ea00d108f12b027d6636cb97ae8d.jpg?token=8732599&api=v2","tabelog_score":3.47,"price_range":"-","nearest_station":"本川越駅 徒歩15分"},{"id":"53bffbf0","name":"元祖仙台ひとくち餃子 あずま","group":"snowman","groups":["snowman"],"genre":"食事","lat":38.26263847742815,"lng":140.87057902968508,"prefecture":"宮城県","source_video_title":"それスノ","members":[],"thumbnail_url":"https://tblg.k-img.com/resize/640x640c/restaurant/images/Rvw/360492/e7652308e3eba0c909ff6878c71892eb.jpg?token=fadc22f&api=v2","tabelog_score":3.44,"price_range":"￥2,000～￥2,999"},{"id":"ab24cee8","name":"ペニーレイン 那須店","group":"snowman","groups":["snowman"],"genre":"カフェ","lat":37.06907000651817,"lng":139.99979241572208,"prefecture":"栃木県","source_video_title":"それスノ","members":[],"thumbnail_url":"https://tblg.k-img.com/resize/640x640c/restaurant/images/Rvw/159705/159705492.jpg?token=4b03bd7&api=v2","tabelog_score":3.58,"price_range":"-"},{"id":"1f3ce9cf","name":"麺屋 ようすけ","group":"snowman","groups":["snowman"],"genre":"ラーメン","lat":36.29108136826427,"lng":139.56416847068627,"prefecture":"栃木県","source_video_title":"それスノ","members":[],"thumbnail_url":"https://tblg.k-img.com/resize/640x640c/restaurant/images/Rvw/157482/157482198.jpg?token=0d495b8&api=v2","tabelog_score":3.76,"price_range":"～￥999","nearest_station":"田島駅 徒歩1分"},{"id":"85994217","name":"拉麺 イチバノナカ","genre":"ramen","prefecture":"埼玉県","city":"所沢市","lat":35.81165963775228,"lng":139.5292460847064,"groups":["snowman"],"group":"snowman","source_type":"tv","source_video_title":"それSnow Manだから","thumbnail_url":"https://tblg.k-img.com/resize/640x640c/restaurant/images/Rvw/361164/2afa5bd70888ab9189e81157a6c05169.jpg?token=5d3c84b&api=v2","tabelog_score":3.62,"price_range":"-"},{"id":"be79694a","name":"モナリザン","genre":"cafe","prefecture":"神奈川県","city":"川崎市","lat":35.52935410879205,"lng":139.7022698728953,"groups":["snowman"],"group":"snowman","source_type":"tv","source_video_title":"それSnow Manだから","thumbnail_url":"https://tblg.k-img.com/resize/640x640c/restaurant/images/Rvw/80514/80514763.jpg?token=901a381&api=v2","tabelog_score":3.49,"price_range":"￥5,000～￥5,999","nearest_station":"JR・京急川崎駅 徒歩7分"},{"id":"12891750","name":"OTOWA FUJIYA","genre":"cafe","prefecture":"東京都","city":"文京区","lat":35.72121590867942,"lng":139.73124947481298,"groups":["snowman"],"group":"snowman","source_type":"tv","source_video_title":"それSnow Manだから","thumbnail_url":"https://tblg.k-img.com/resize/640x640c/restaurant/images/Rvw/257675/276711bcdbf39e29842f93331e2c2ad8.jpg?token=ed205e4&api=v2","tabelog_score":3.29,"price_range":"-"},{"id":"6509c28b","name":"大谷堂","genre":"sweets","prefecture":"神奈川県","city":"川崎市","lat":35.53455919879808,"lng":139.73159002292732,"groups":["snowman"],"group":"snowman","source_type":"tv","source_video_title":"それSnow Manだから","thumbnail_url":"https://tblg.k-img.com/resize/640x640c/restaurant/images/Rvw/346915/76c3ae80847f70fb435456e27888a8b9.jpg?token=4127db8&api=v2","tabelog_score":3.36,"price_range":"-"},{"id":"be2efe73","name":"Seoul Cafe","genre":"cafe","prefecture":"東京都","city":"新宿区","lat":35.699367137878845,"lng":139.70276558345049,"groups":["snowman"],"group":"snowman","source_type":"tv","source_video_title":"それSnow Manだから","thumbnail_url":"https://tblg.k-img.com/resize/640x640c/restaurant/images/Rvw/105092/105092756.jpg?token=fe067ef&api=v2","tabelog_score":3.49,"price_range":"￥1,000～￥1,999","nearest_station":"新大久保駅 徒歩5分"},{"id":"e4d14e02","name":"うずら屋","genre":"sweets","prefecture":"埼玉県","city":"所沢市","lat":35.79612430854648,"lng":139.4632222957575,"groups":["snowman"],"group":"snowman","source_type":"tv","source_video_title":"それSnow Manだから","thumbnail_url":"https://tblg.k-img.com/resize/640x640c/restaurant/images/Rvw/62370/62370631.jpg?token=9a13e28&api=v2","tabelog_score":3.5,"price_range":"￥1,000～￥1,999","nearest_station":"航空公園駅 徒歩5分"},{"id":"60106d61","name":"川豊 本店","genre":"washoku","prefecture":"千葉県","city":"成田市","lat":35.78339705882638,"lng":140.31673385503066,"groups":["snowman"],"group":"snowman","source_type":"tv","source_video_title":"それSnow Manだから","thumbnail_url":"https://tblg.k-img.com/resize/640x640c/restaurant/images/Rvw/93290/93290014.jpg?token=2d927c8&api=v2","tabelog_score":3.62,"price_range":"￥5,000～￥5,999","nearest_station":"成田駅 徒歩11分"},{"id":"785b973d","name":"三久","genre":"others","prefecture":"千葉県","city":"成田市","lat":35.784172638021445,"lng":140.31963418387468,"groups":["snowman"],"group":"snowman","source_type":"tv","source_video_title":"それSnow Manだから","thumbnail_url":"https://tblg.k-img.com/resize/640x640c/restaurant/images/Rvw/349903/f0e653f04159bbf46340efef75520794.jpg?token=0568346&api=v2","tabelog_score":3.17,"price_range":"-","nearest_station":"成田駅 徒歩14分"},{"id":"3fc9a407","name":"プレゼンテ スギ","genre":"shokuji","prefecture":"千葉県","city":"佐倉市","lat":35.71271233804218,"lng":140.24221408320713,"groups":["snowman"],"group":"snowman","source_type":"tv","source_video_title":"それSnow Manだから","thumbnail_url":"https://tblg.k-img.com/resize/640x640c/restaurant/images/Rvw/164334/92a0030fac7d8bc87f7dd514c9727306.jpg?token=fb57a4e&api=v2","tabelog_score":4.47,"price_range":"￥40,000～￥49,999"},{"id":"3e6f5ea2","name":"anea cafe 松見坂","genre":"cafe","prefecture":"東京都","city":"渋谷区","lat":35.655579958707555,"lng":139.6886924241798,"groups":["snowman"],"group":"snowman","source_type":"tv","source_video_title":"それSnow Manだから","thumbnail_url":"https://tblg.k-img.com/resize/640x640c/restaurant/images/Rvw/355338/abe6317bb9062019a74ed129bf5b1d21.jpg?token=7c7453c&api=v2","tabelog_score":3.48,"price_range":"￥3,000～￥3,999"},{"id":"8d7a5d16","name":"神田きくかわ 上野毛店","genre":"washoku","prefecture":"東京都","city":"世田谷区","lat":35.616118738718534,"lng":139.64445314381226,"groups":["snowman"],"group":"snowman","source_type":"tv","source_video_title":"それSnow Manだから","thumbnail_url":"https://tblg.k-img.com/resize/640x640c/restaurant/images/Rvw/247869/6db3800bdd92eea5260f6bc0392e15b6.jpg?token=c20325c&api=v2","tabelog_score":3.55,"price_range":"-"},{"id":"c3404362","name":"ステーキハウス リベラ 目黒店","genre":"shokuji","prefecture":"東京都","city":"目黒区","lat":35.62904163792178,"lng":139.69732498274394,"groups":["snowman"],"group":"snowman","source_type":"tv","source_video_title":"それSnow Manだから","thumbnail_url":"https://tblg.k-img.com/resize/640x640c/restaurant/images/Rvw/8875/8875473.jpg?token=e9cbd73&api=v2","tabelog_score":3.54,"price_range":"￥3,000～￥3,999"},{"id":"f0f80d7c","name":"シンラガーデン 本店","genre":"yakiniku","prefecture":"埼玉県","city":"川越市","lat":35.92913913766311,"lng":139.48355468592504,"groups":["snowman"],"group":"snowman","members":["佐久間大介"],"source_type":"tv","source_video_title":"バナナマンのせかっくグルメ!!","thumbnail_url":"https://tblg.k-img.com/resize/640x640c/restaurant/images/Rvw/15155/15155097.jpg?token=13d961d&api=v2","tabelog_score":3.17,"price_range":"￥5,000～￥5,999"},{"id":"90284534","name":"テッパン ル オムス","genre":"shokuji","prefecture":"埼玉県","city":"川越市","lat":35.92406423766619,"lng":139.48309928587412,"groups":["snowman"],"group":"snowman","members":["佐久間大介"],"source_type":"tv","source_video_title":"バナナマンのせかっくグルメ!!","thumbnail_url":"https://tblg.k-img.com/resize/640x640c/restaurant/images/Rvw/86777/86777092.jpg?token=fdf6bb6&api=v2","tabelog_score":3.51,"price_range":"￥15,000～￥19,999","nearest_station":"本川越駅 徒歩18分"},{"id":"0f21560d","name":"手打らーめん 大進","genre":"ramen","prefecture":"茨城県","city":"ひたちなか市","lat":36.396138128503665,"lng":140.52538397107364,"groups":["snowman"],"group":"snowman","members":["目黒蓮"],"source_type":"tv","source_video_title":"バナナマンのせかっくグルメ!!","thumbnail_url":"https://tblg.k-img.com/resize/640x640c/restaurant/images/Rvw/350594/794b15a01547e9d67227a3fb23a6416e.jpg?token=05ea7ef&api=v2","tabelog_score":3.61,"price_range":"～￥999","nearest_station":"勝田駅 徒歩3分"},{"id":"484981ad","name":"うなぎ家 しば福や","genre":"washoku","prefecture":"愛知県","city":"名古屋市","lat":35.17513813731651,"lng":136.89152818012587,"groups":["snowman"],"group":"snowman","members":["阿部亮平"],"source_type":"tv","source_video_title":"バナナマンのせかっくグルメ!!","thumbnail_url":"https://tblg.k-img.com/resize/640x640c/restaurant/images/Rvw/248096/e549d688bec0ed5dfb4d2fb51ae7f6cc.jpg?token=6fbb5c1&api=v2","tabelog_score":3.75,"price_range":"￥5,000～￥5,999","nearest_station":"国際センター駅 徒歩6分"},{"id":"7efac0da","name":"覚王山とんかつ わだ福","genre":"shokuji","prefecture":"愛知県","city":"名古屋市","lat":35.16683168814662,"lng":136.95263459116092,"groups":["snowman"],"group":"snowman","members":["阿部亮平"],"source_type":"tv","source_video_title":"バナナマンのせかっくグルメ!!","thumbnail_url":"https://tblg.k-img.com/resize/640x640c/restaurant/images/Rvw/173479/7d0b3051002727928dd8529f328ded2b.jpg?token=a83658d&api=v2","tabelog_score":3.55,"price_range":"￥1,000～￥1,999","nearest_station":"覚王山駅 徒歩1分"}]